names,location,lat,lon
Bombay To Barcelona Library Café,"https://www.google.com/maps/dir/?api=1&destination=19.1094711505,72.8812160343",19.1094711505,72.8812160343
K. Rustom Ice Cream,"https://www.google.com/maps/dir/?api=1&destination=18.9332097761,72.8250784054",18.9332097761,72.8250784054
B Merwan & Co,"https://www.google.com/maps/dir/?api=1&destination=18.9625452098,72.8158958629",18.9625452098,72.8158958629
Shree Thaker Bhojanalay,"https://www.google.com/maps/dir/?api=1&destination=18.9512018821,72.8282779455",18.9512018821,72.8282779455
Cafe Madras,"https://www.google.com/maps/dir/?api=1&destination=19.0276929482,72.8551791608",19.0276929482,72.8551791608
Merwans Cake Stop,"https://www.google.com/maps/dir/?api=1&destination=19.1190784854,72.8454249725",19.1190784854,72.8454249725
Yauatcha,"https://www.google.com/maps/dir/?api=1&destination=19.0609700993,72.8344647959",19.0609700993,72.8344647959
Hotel Ram Ashraya,"https://www.google.com/maps/dir/?api=1&destination=19.0280507923,72.8516738489",19.0280507923,72.8516738489
Bastian,"https://www.google.com/maps/dir/?api=1&destination=19.0636503627,72.8349975497",19.0636503627,72.8349975497
The Tanjore Tiffin Room,"https://www.google.com/maps/dir/?api=1&destination=19.1285363827,72.8171799704",19.1285363827,72.8171799704
Hakkasan,"https://www.google.com/maps/dir/?api=1&destination=19.0609700993,72.8344647959",19.0609700993,72.8344647959
JW Café - JW Marriott Mumbai Sahar,"https://www.google.com/maps/dir/?api=1&destination=19.1077176495,72.8804831207",19.1077176495,72.8804831207
Prakash Shakahari Upahaar Kendra,"https://www.google.com/maps/dir/?api=1&destination=19.0233623081,72.8392113000",19.0233623081,72.8392113000
Masala Library,"https://www.google.com/maps/dir/?api=1&destination=19.0689743183,72.8696426377",19.0689743183,72.8696426377
Hearsch Bakery,"https://www.google.com/maps/dir/?api=1&destination=19.0552044393,72.8270823509",19.0552044393,72.8270823509
Coppetto Artisan Gelato,"https://www.google.com/maps/dir/?api=1&destination=19.0599699805,72.8342210501",19.0599699805,72.8342210501
Wasabi By Morimoto - The Taj Mahal Palace,"https://www.google.com/maps/dir/?api=1&destination=18.9221397481,72.8337563574",18.9221397481,72.8337563574
Bayroute,"https://www.google.com/maps/dir/?api=1&destination=19.1107446843,72.8253392503",19.1107446843,72.8253392503
The Big Cloud Kitchen,"https://www.google.com/maps/dir/?api=1&destination=19.0358560000,73.0241780000",19.0358560000,73.0241780000
Aer - Four Seasons,"https://www.google.com/maps/dir/?api=1&destination=18.9987630324,72.8176859021",18.9987630324,72.8176859021
Bombay Salad Co.,"https://www.google.com/maps/dir/?api=1&destination=19.0648130219,72.8308340907",19.0648130219,72.8308340907
Starbucks Coffee,"https://www.google.com/maps/dir/?api=1&destination=18.9325412503,72.8345328569",18.9325412503,72.8345328569
Ashok Vada Pav Stall,"https://www.google.com/maps/dir/?api=1&destination=19.0196775460,72.8321265802",19.0196775460,72.8321265802
Pa Pa Ya,"https://www.google.com/maps/dir/?api=1&destination=18.9213830078,72.8323659673",18.9213830078,72.8323659673
A.Rama Nayak's Udipi Shri Krishna Boarding,"https://www.google.com/maps/dir/?api=1&destination=19.0274802699,72.8507072479",19.0274802699,72.8507072479
Kwality Wall's,"https://www.google.com/maps/dir/?api=1&destination=19.1742115680,72.9540685192",19.1742115680,72.9540685192
Taj Mahal Tea House,"https://www.google.com/maps/dir/?api=1&destination=19.0485353672,72.8259504586",19.0485353672,72.8259504586
Poetry by Love and Cheesecake,"https://www.google.com/maps/dir/?api=1&destination=19.1160199243,72.9088220000",19.1160199243,72.9088220000
Ovenfresh,"https://www.google.com/maps/dir/?api=1&destination=19.0239157286,72.8379228339",19.0239157286,72.8379228339
Joey's Pizza,"https://www.google.com/maps/dir/?api=1&destination=19.1781772594,72.8347427398",19.1781772594,72.8347427398
Dakshinayan,"https://www.google.com/maps/dir/?api=1&destination=19.1129036502,72.8256192058",19.1129036502,72.8256192058
Smoke House Deli,"https://www.google.com/maps/dir/?api=1&destination=19.0658543065,72.8299154341",19.0658543065,72.8299154341
Gallops,"https://www.google.com/maps/dir/?api=1&destination=18.9800975779,72.8201079369",18.9800975779,72.8201079369
Barbeque Nation,"https://www.google.com/maps/dir/?api=1&destination=19.0438994373,73.0091952905",19.0438994373,73.0091952905
Vinay Health Home,"https://www.google.com/maps/dir/?api=1&destination=18.9530724602,72.8172295913",18.9530724602,72.8172295913
81 Olives,"https://www.google.com/maps/dir/?api=1&destination=19.2293084809,72.8438535333",19.2293084809,72.8438535333
Palladium Social,"https://www.google.com/maps/dir/?api=1&destination=18.9943615773,72.8238925338",18.9943615773,72.8238925338
O Pedro,"https://www.google.com/maps/dir/?api=1&destination=19.0601838848,72.8642698377",19.0601838848,72.8642698377
Imbiss,"https://www.google.com/maps/dir/?api=1&destination=19.0538873790,72.8298057988",19.0538873790,72.8298057988
NIC - Natural Ice Creams,"https://www.google.com/maps/dir/?api=1&destination=19.0875010000,72.9160810000",19.0875010000,72.9160810000
Crystal,"https://www.google.com/maps/dir/?api=1&destination=18.9557684150,72.8120673448",18.9557684150,72.8120673448
The Nutcracker,"https://www.google.com/maps/dir/?api=1&destination=18.9284770761,72.8337174654",18.9284770761,72.8337174654
Natural Ice Cream,"https://www.google.com/maps/dir/?api=1&destination=19.1153620000,72.9070830000",19.1153620000,72.9070830000
Burma  Burma,"https://www.google.com/maps/dir/?api=1&destination=18.9296235543,72.8320139274",18.9296235543,72.8320139274
Woodside Inn,"https://www.google.com/maps/dir/?api=1&destination=18.9245780399,72.8319505602",18.9245780399,72.8319505602
Sea Lounge - The Taj Mahal Palace,"https://www.google.com/maps/dir/?api=1&destination=18.9221397481,72.8337563574",18.9221397481,72.8337563574
Huckin' Fungry!,"https://www.google.com/maps/dir/?api=1&destination=19.1355602368,72.8202538019",19.1355602368,72.8202538019
"Thai Pavilion - President, Mumbai - IHCL SeleQtions","https://www.google.com/maps/dir/?api=1&destination=18.9145097077,72.8211677447",18.9145097077,72.8211677447
Shree Om Dairy Farm,"https://www.google.com/maps/dir/?api=1&destination=19.3800446969,72.8306335956",19.3800446969,72.8306335956
Romano's - JW Marriott Mumbai Sahar,"https://www.google.com/maps/dir/?api=1&destination=19.1077014925,72.8804888204",19.1077014925,72.8804888204
Gateway Taproom,"https://www.google.com/maps/dir/?api=1&destination=19.0601826172,72.8642708436",19.0601826172,72.8642708436
Swap Habits,"https://www.google.com/maps/dir/?api=1&destination=19.1135226647,72.8914208338",19.1135226647,72.8914208338
Shailesh Sweetcorn,"https://www.google.com/maps/dir/?api=1&destination=19.2503750000,72.8442010000",19.2503750000,72.8442010000
The Takeout,"https://www.google.com/maps/dir/?api=1&destination=19.1024931204,72.8410368289",19.1024931204,72.8410368289
Jimis Burger,"https://www.google.com/maps/dir/?api=1&destination=19.1890921554,72.8348258883",19.1890921554,72.8348258883
Mohanlal S Mithaiwala,"https://www.google.com/maps/dir/?api=1&destination=18.9492691000,72.8318865000",18.9492691000,72.8318865000
Theobroma,"https://www.google.com/maps/dir/?api=1&destination=19.1157497038,72.9088347405",19.1157497038,72.9088347405
Aaswad,"https://www.google.com/maps/dir/?api=1&destination=19.0199764506,72.8366826475",19.0199764506,72.8366826475
Gulati's,"https://www.google.com/maps/dir/?api=1&destination=19.1257849466,72.8619178757",19.1257849466,72.8619178757
Gajalee,"https://www.google.com/maps/dir/?api=1&destination=19.1038224981,72.8516332805",19.1038224981,72.8516332805
Le 15 Patisserie,"https://www.google.com/maps/dir/?api=1&destination=19.0625630000,72.8308290000",19.0625630000,72.8308290000
Arya Bhavan,"https://www.google.com/maps/dir/?api=1&destination=19.0271129159,72.8509121016",19.0271129159,72.8509121016
Chaitanya,"https://www.google.com/maps/dir/?api=1&destination=19.0182993447,72.8328296542",19.0182993447,72.8328296542
Sammy Sosa,"https://www.google.com/maps/dir/?api=1&destination=19.1511346900,72.8317121789",19.1511346900,72.8317121789
Blue's Kitchen By Loima,"https://www.google.com/maps/dir/?api=1&destination=19.0663390000,72.8310100000",19.0663390000,72.8310100000
Stacks And Racks,"https://www.google.com/maps/dir/?api=1&destination=19.1812014189,72.8363339603",19.1812014189,72.8363339603
Sip N Snack,"https://www.google.com/maps/dir/?api=1&destination=18.9582414126,72.8361482173",18.9582414126,72.8361482173
Cafe Monza,"https://www.google.com/maps/dir/?api=1&destination=19.0320532686,73.0666317791",19.0320532686,73.0666317791
D'Crepes Cafe,"https://www.google.com/maps/dir/?api=1&destination=19.2263773293,72.9706348479",19.2263773293,72.9706348479
A-1 Sweets,"https://www.google.com/maps/dir/?api=1&destination=19.2276256000,73.1588837000",19.2276256000,73.1588837000
7th Heaven,"https://www.google.com/maps/dir/?api=1&destination=19.1036678940,72.8512527421",19.1036678940,72.8512527421
Farid Seekh Kebab Centre,"https://www.google.com/maps/dir/?api=1&destination=19.1433574281,72.8379503265",19.1433574281,72.8379503265
MH-09 Shetkari,"https://www.google.com/maps/dir/?api=1&destination=19.1953350658,72.9612511396",19.1953350658,72.9612511396
Sin City Rooftop Resto & Lounge,"https://www.google.com/maps/dir/?api=1&destination=19.1306403167,72.8316176310",19.1306403167,72.8316176310
Dough & Crème,"https://www.google.com/maps/dir/?api=1&destination=19.2465180000,72.9843240000",19.2465180000,72.9843240000
Soam,"https://www.google.com/maps/dir/?api=1&destination=18.9574423457,72.8089221194",18.9574423457,72.8089221194
Trishna,"https://www.google.com/maps/dir/?api=1&destination=18.9286857579,72.8322808072",18.9286857579,72.8322808072
Estella,"https://www.google.com/maps/dir/?api=1&destination=19.0895473070,72.8274665773",19.0895473070,72.8274665773
Häagen-Dazs,"https://www.google.com/maps/dir/?api=1&destination=19.1160893009,72.9090617225",19.1160893009,72.9090617225
Jai Hind Lunch Home,"https://www.google.com/maps/dir/?api=1&destination=19.0629025045,72.8292324767",19.0629025045,72.8292324767
Gokul Ice Creams,"https://www.google.com/maps/dir/?api=1&destination=19.0815678458,72.8355125338",19.0815678458,72.8355125338
Britannia & Company Restaurant,"https://www.google.com/maps/dir/?api=1&destination=18.9357401917,72.8390540555",18.9357401917,72.8390540555
Cafe Irani Chaii,"https://www.google.com/maps/dir/?api=1&destination=19.0390852603,72.8426954895",19.0390852603,72.8426954895
The Comfort Zone,"https://www.google.com/maps/dir/?api=1&destination=19.1031870000,72.8365560000",19.1031870000,72.8365560000
Belo Pops,"https://www.google.com/maps/dir/?api=1&destination=19.1442769093,72.8319562599",19.1442769093,72.8319562599
Chatkara House,"https://www.google.com/maps/dir/?api=1&destination=19.1426790000,72.8316420000",19.1426790000,72.8316420000
Sai Darshan Rasoi,"https://www.google.com/maps/dir/?api=1&destination=19.0512550000,73.0137190000",19.0512550000,73.0137190000
Moussestruck,"https://www.google.com/maps/dir/?api=1&destination=19.1188497684,72.8439842910",19.1188497684,72.8439842910
Food Hub,"https://www.google.com/maps/dir/?api=1&destination=19.2005924031,72.8214228898",19.2005924031,72.8214228898
Kebabs & Kurries - ITC Grand Central,"https://www.google.com/maps/dir/?api=1&destination=18.9982161855,72.8388894349",18.9982161855,72.8388894349
All Stir Fry - Gordon House Hotel,"https://www.google.com/maps/dir/?api=1&destination=18.9239840108,72.8326455876",18.9239840108,72.8326455876
Layers Of Love,"https://www.google.com/maps/dir/?api=1&destination=19.1447377565,72.8294574469",19.1447377565,72.8294574469
Havana Café & Bar - The Gordon House Hotel,"https://www.google.com/maps/dir/?api=1&destination=18.9240474417,72.8327619284",18.9240474417,72.8327619284
Khichdi Experiment by Ola Foods,"https://www.google.com/maps/dir/?api=1&destination=19.2334716456,72.9712058231",19.2334716456,72.9712058231
The Sahib Room & Kipling Bar - The St. Regis Mumbai,"https://www.google.com/maps/dir/?api=1&destination=18.9946148766,72.8237121552",18.9946148766,72.8237121552
Seven Kitchens - The St. Regis Mumbai,"https://www.google.com/maps/dir/?api=1&destination=18.9946018787,72.8236722574",18.9946018787,72.8236722574
Bay Cream,"https://www.google.com/maps/dir/?api=1&destination=19.1082150000,72.8241240000",19.1082150000,72.8241240000
Toujours,"https://www.google.com/maps/dir/?api=1&destination=19.1343979990,72.8347219527",19.1343979990,72.8347219527
The Cakeway,"https://www.google.com/maps/dir/?api=1&destination=19.2084556147,72.9732131213",19.2084556147,72.9732131213
Loco For Cocoa,"https://www.google.com/maps/dir/?api=1&destination=19.1186720000,72.9108350000",19.1186720000,72.9108350000
Yummy Momos,"https://www.google.com/maps/dir/?api=1&destination=18.9382880110,72.8368623555",18.9382880110,72.8368623555
Gravies & Tikkas,"https://www.google.com/maps/dir/?api=1&destination=19.1283507588,72.8309715539",19.1283507588,72.8309715539
Sassy Teaspoon,"https://www.google.com/maps/dir/?api=1&destination=18.9890124037,72.8310161456",18.9890124037,72.8310161456
Ambriona Chocolates,"https://www.google.com/maps/dir/?api=1&destination=19.0483510000,72.8223640000",19.0483510000,72.8223640000
Jyran - Sofitel,"https://www.google.com/maps/dir/?api=1&destination=19.0672679206,72.8691957146",19.0672679206,72.8691957146
Thanksgiving Patisserie And Confectionery,"https://www.google.com/maps/dir/?api=1&destination=18.9900411653,72.8465739638",18.9900411653,72.8465739638
Frugurpop,"https://www.google.com/maps/dir/?api=1&destination=19.0619252135,72.8295442835",19.0619252135,72.8295442835
Oki Poki By Mamagoto,"https://www.google.com/maps/dir/?api=1&destination=19.0549781693,72.8283731639",19.0549781693,72.8283731639
N P Iyer Bhavan,"https://www.google.com/maps/dir/?api=1&destination=19.1079053700,72.8424516500",19.1079053700,72.8424516500
Mad Hatters Treats,"https://www.google.com/maps/dir/?api=1&destination=19.0677758171,72.8319947425",19.0677758171,72.8319947425
Matka Mahal,"https://www.google.com/maps/dir/?api=1&destination=19.0400931114,72.8935609013",19.0400931114,72.8935609013
Only Rotis,"https://www.google.com/maps/dir/?api=1&destination=19.1105311622,72.8679880500",19.1105311622,72.8679880500
Rrenitz Cakes & More,"https://www.google.com/maps/dir/?api=1&destination=19.1913790000,72.8213470000",19.1913790000,72.8213470000
Yazu - Pan Asian Supper Club,"https://www.google.com/maps/dir/?api=1&destination=19.1416958243,72.8298292681",19.1416958243,72.8298292681
Sauteed Stories,"https://www.google.com/maps/dir/?api=1&destination=19.1793400000,72.8460300000",19.1793400000,72.8460300000
The Keto Me,"https://www.google.com/maps/dir/?api=1&destination=19.2072170295,72.9721412435",19.2072170295,72.9721412435
Heaven,"https://www.google.com/maps/dir/?api=1&destination=19.0997282925,73.0046576634",19.0997282925,73.0046576634
Cuisson Amour,"https://www.google.com/maps/dir/?api=1&destination=19.2589000000,72.9794120000",19.2589000000,72.9794120000
Sandwiches N More,"https://www.google.com/maps/dir/?api=1&destination=19.3507948220,72.8124146909",19.3507948220,72.8124146909
Irani's High On Food,"https://www.google.com/maps/dir/?api=1&destination=19.2129172304,72.9848324507",19.2129172304,72.9848324507
Raghukrupa Sweets,"https://www.google.com/maps/dir/?api=1&destination=19.1173368073,72.8478439897",19.1173368073,72.8478439897
Be Right Back,"https://www.google.com/maps/dir/?api=1&destination=18.9724559190,72.8152742609",18.9724559190,72.8152742609
Imly And Chillis,"https://www.google.com/maps/dir/?api=1&destination=19.1162570000,72.8334630000",19.1162570000,72.8334630000
Sweetbuds,"https://www.google.com/maps/dir/?api=1&destination=19.2350145634,72.8443148732",19.2350145634,72.8443148732
Sharayu's Kitchen,"https://www.google.com/maps/dir/?api=1&destination=19.0303420000,73.0601360000",19.0303420000,73.0601360000
Le Paan,"https://www.google.com/maps/dir/?api=1&destination=19.1169468438,72.9100186005",19.1169468438,72.9100186005
Fruitilicious,"https://www.google.com/maps/dir/?api=1&destination=18.9447116158,72.8291503340",18.9447116158,72.8291503340
Brewlette Gourmet Teas,"https://www.google.com/maps/dir/?api=1&destination=18.9657540000,72.8198260000",18.9657540000,72.8198260000
Amrita's Healthy Treats & More,"https://www.google.com/maps/dir/?api=1&destination=19.0811968093,72.8374500945",19.0811968093,72.8374500945
Masala Bay - Taj Lands End,"https://www.google.com/maps/dir/?api=1&destination=19.0443646841,72.8193072975",19.0443646841,72.8193072975
Pizza By The Bay,"https://www.google.com/maps/dir/?api=1&destination=18.9334111600,72.8239498700",18.9334111600,72.8239498700
Tewari Bros. Mithaiwala,"https://www.google.com/maps/dir/?api=1&destination=18.9564720450,72.8159451485",18.9564720450,72.8159451485
National Shawarma,"https://www.google.com/maps/dir/?api=1&destination=19.2821280000,72.8584750000",19.2821280000,72.8584750000
Shawarmaji,"https://www.google.com/maps/dir/?api=1&destination=19.1916367178,72.9683304951",19.1916367178,72.9683304951
Maharashtra Lunch Home,"https://www.google.com/maps/dir/?api=1&destination=19.0424498111,73.0220306665",19.0424498111,73.0220306665
Purshottam Kandoi Haribhai Damodar Mithaiwala,"https://www.google.com/maps/dir/?api=1&destination=19.0824320000,72.9048620000",19.0824320000,72.9048620000
Cake Nation,"https://www.google.com/maps/dir/?api=1&destination=19.2756990000,72.8704620000",19.2756990000,72.8704620000
Guru Kripa,"https://www.google.com/maps/dir/?api=1&destination=19.0433464004,72.8621056304",19.0433464004,72.8621056304
Cake Show,"https://www.google.com/maps/dir/?api=1&destination=19.2835454389,72.8638624772",19.2835454389,72.8638624772
Biryani Guru,"https://www.google.com/maps/dir/?api=1&destination=19.0161511918,73.0431191996",19.0161511918,73.0431191996
Ekitchen By Flag's,"https://www.google.com/maps/dir/?api=1&destination=19.1443130000,72.8291650000",19.1443130000,72.8291650000
Satkar Rice Plate House,"https://www.google.com/maps/dir/?api=1&destination=19.1667310000,72.8546540000",19.1667310000,72.8546540000
Salt Water Cafe,"https://www.google.com/maps/dir/?api=1&destination=19.0506834183,72.8271651641",19.0506834183,72.8271651641
Sindhful,"https://www.google.com/maps/dir/?api=1&destination=19.0685145274,72.8401879594",19.0685145274,72.8401879594
B Bhagat Tarachand,"https://www.google.com/maps/dir/?api=1&destination=18.9517818618,72.8305675462",18.9517818618,72.8305675462
Prashant Corner,"https://www.google.com/maps/dir/?api=1&destination=19.1933586131,72.9673997685",19.1933586131,72.9673997685
Mainland China,"https://www.google.com/maps/dir/?api=1&destination=19.1412153307,72.8323730081",19.1412153307,72.8323730081
Quesso Ristorante,"https://www.google.com/maps/dir/?api=1&destination=19.1488102599,72.8316159546",19.1488102599,72.8316159546
Little West Pizza,"https://www.google.com/maps/dir/?api=1&destination=19.2545580944,72.8490586951",19.2545580944,72.8490586951
Jia The Oriental Kitchen,"https://www.google.com/maps/dir/?api=1&destination=18.9240807429,72.8334368393",18.9240807429,72.8334368393
Jai Jawan,"https://www.google.com/maps/dir/?api=1&destination=19.0642061839,72.8346797079",19.0642061839,72.8346797079
Royal China,"https://www.google.com/maps/dir/?api=1&destination=18.9380073532,72.8329124674",18.9380073532,72.8329124674
Origami Japanese and Korean Restaurant,"https://www.google.com/maps/dir/?api=1&destination=19.1111105000,72.9082561000",19.1111105000,72.9082561000
1 BHK - Brew House Kitchen,"https://www.google.com/maps/dir/?api=1&destination=19.1510409406,72.8324403986",19.1510409406,72.8324403986
Cake Basket,"https://www.google.com/maps/dir/?api=1&destination=19.0984448524,72.8456147388",19.0984448524,72.8456147388
Ivy Restaurant And Banquets,"https://www.google.com/maps/dir/?api=1&destination=19.0696001515,72.9003857821",19.0696001515,72.9003857821
Cavalry The Lounge,"https://www.google.com/maps/dir/?api=1&destination=19.1184395343,72.9051755369",19.1184395343,72.9051755369
Goa Portuguesa,"https://www.google.com/maps/dir/?api=1&destination=19.0321718074,72.8398298845",19.0321718074,72.8398298845
Uno Más - Tapas Bar Kitchen,"https://www.google.com/maps/dir/?api=1&destination=19.0634180833,72.8575874493",19.0634180833,72.8575874493
China Bistro,"https://www.google.com/maps/dir/?api=1&destination=19.2194213729,72.9703203589",19.2194213729,72.9703203589
Celini - Grand Hyatt Mumbai Hotel & Residences,"https://www.google.com/maps/dir/?api=1&destination=19.0786071348,72.8512279317",19.0786071348,72.8512279317
The Wine Rack,"https://www.google.com/maps/dir/?api=1&destination=18.9948085757,72.8247592226",18.9948085757,72.8247592226
Boulevard - The Orchid,"https://www.google.com/maps/dir/?api=1&destination=19.0973960000,72.8547800000",19.0973960000,72.8547800000
Millennials Eatery & Bar,"https://www.google.com/maps/dir/?api=1&destination=18.9288494048,72.8338009492",18.9288494048,72.8338009492
Fooze,"https://www.google.com/maps/dir/?api=1&destination=19.2274103137,72.9704554752",19.2274103137,72.9704554752
Dome - InterContinental,"https://www.google.com/maps/dir/?api=1&destination=18.9349204034,72.8241101280",18.9349204034,72.8241101280
Mamagoto,"https://www.google.com/maps/dir/?api=1&destination=19.0549170000,72.8282780000",19.0549170000,72.8282780000
Udipi Idli House,"https://www.google.com/maps/dir/?api=1&destination=19.0276856582,72.8564585745",19.0276856582,72.8564585745
Hotel Deluxe,"https://www.google.com/maps/dir/?api=1&destination=18.9338770306,72.8331176564",18.9338770306,72.8331176564
The Cake Room,"https://www.google.com/maps/dir/?api=1&destination=19.2141300000,73.0884570000",19.2141300000,73.0884570000
Ramesh Sweets And Cakes,"https://www.google.com/maps/dir/?api=1&destination=19.2382930000,73.1643220000",19.2382930000,73.1643220000
Gadda Da Vida - Novotel,"https://www.google.com/maps/dir/?api=1&destination=19.1084450300,72.8247699514",19.1084450300,72.8247699514
Honeys Delights,"https://www.google.com/maps/dir/?api=1&destination=19.2137229805,72.8743707016",19.2137229805,72.8743707016
Just Baked by Melissa,"https://www.google.com/maps/dir/?api=1&destination=19.0639400000,73.0644230000",19.0639400000,73.0644230000
"Trattoria - President, Mumbai - IHCL SeleQtions","https://www.google.com/maps/dir/?api=1&destination=18.9145281037,72.8211771324",18.9145281037,72.8211771324
Cafe Mondegar,"https://www.google.com/maps/dir/?api=1&destination=18.9242704010,72.8321356326",18.9242704010,72.8321356326
Tawakkal Sweets,"https://www.google.com/maps/dir/?api=1&destination=18.9600145664,72.8311264515",18.9600145664,72.8311264515
KCROASTERS - A Koinonia Project,"https://www.google.com/maps/dir/?api=1&destination=19.0748478680,72.8270240128",19.0748478680,72.8270240128
Shamiana - The Taj Mahal Palace,"https://www.google.com/maps/dir/?api=1&destination=18.9221397481,72.8337563574",18.9221397481,72.8337563574
Flax,"https://www.google.com/maps/dir/?api=1&destination=19.0003490367,72.8303764388",19.0003490367,72.8303764388
Sweetish House Mafia,"https://www.google.com/maps/dir/?api=1&destination=18.9993990000,72.8234680000",18.9993990000,72.8234680000
OH SOY,"https://www.google.com/maps/dir/?api=1&destination=19.0747130000,72.8486150000",19.0747130000,72.8486150000
Pali Village Cafe,"https://www.google.com/maps/dir/?api=1&destination=19.0629177152,72.8292542696",19.0629177152,72.8292542696
Siru's Momo,"https://www.google.com/maps/dir/?api=1&destination=19.2912044525,72.8640136719",19.2912044525,72.8640136719
Somethings Fishy - Regenza By Tunga,"https://www.google.com/maps/dir/?api=1&destination=19.0672717000,72.9992708000",19.0672717000,72.9992708000
Dolphin Frankie,"https://www.google.com/maps/dir/?api=1&destination=19.0814683536,72.9044027254",19.0814683536,72.9044027254
Trumpet Sky Lounge,"https://www.google.com/maps/dir/?api=1&destination=19.1355848678,72.8336279467",19.1355848678,72.8336279467
The Union Bar & Eating House,"https://www.google.com/maps/dir/?api=1&destination=19.0671497238,72.9980373010",19.0671497238,72.9980373010
Skky - Ramada Powai Hotel and Convention Centre,"https://www.google.com/maps/dir/?api=1&destination=19.1362829847,72.8990212083",19.1362829847,72.8990212083
Orchids,"https://www.google.com/maps/dir/?api=1&destination=19.0616057864,72.9016112164",19.0616057864,72.9016112164
The Table,"https://www.google.com/maps/dir/?api=1&destination=18.9242060187,72.8332014754",18.9242060187,72.8332014754
Huckleberry's,"https://www.google.com/maps/dir/?api=1&destination=19.1629048809,72.8422334790",19.1629048809,72.8422334790
Three Chicks and A Bear,"https://www.google.com/maps/dir/?api=1&destination=19.0015958290,72.8294651583",19.0015958290,72.8294651583
Agri Parcel,"https://www.google.com/maps/dir/?api=1&destination=19.2108060000,73.0857780000",19.2108060000,73.0857780000
La Folie Du Chocolate,"https://www.google.com/maps/dir/?api=1&destination=18.9286134487,72.8322851658",18.9286134487,72.8322851658
Craftbar,"https://www.google.com/maps/dir/?api=1&destination=19.0605533839,72.8515786305",19.0605533839,72.8515786305
Cakes R Us,"https://www.google.com/maps/dir/?api=1&destination=19.1176292002,72.8537260741",19.1176292002,72.8537260741
Coffee By Di Bella,"https://www.google.com/maps/dir/?api=1&destination=19.0597668505,72.8296183795",19.0597668505,72.8296183795
Chocoholix,"https://www.google.com/maps/dir/?api=1&destination=19.1768776454,72.8376214206",19.1768776454,72.8376214206
145 Bandra,"https://www.google.com/maps/dir/?api=1&destination=19.0604244079,72.8295700997",19.0604244079,72.8295700997
Morbiwala Sweet Mart,"https://www.google.com/maps/dir/?api=1&destination=19.1759662628,72.9563195631",19.1759662628,72.9563195631
Patiala Shahi,"https://www.google.com/maps/dir/?api=1&destination=19.1146223209,72.8994857523",19.1146223209,72.8994857523
Ming Yang - Taj Lands End,"https://www.google.com/maps/dir/?api=1&destination=19.0442645357,72.8193274140",19.0442645357,72.8193274140
Tanatan,"https://www.google.com/maps/dir/?api=1&destination=19.1089100956,72.8254418448",19.1089100956,72.8254418448
Independence Brewing Company,"https://www.google.com/maps/dir/?api=1&destination=19.1391843825,72.8326395527",19.1391843825,72.8326395527
Curry Twist,"https://www.google.com/maps/dir/?api=1&destination=19.1032401975,72.8863058612",19.1032401975,72.8863058612
Monginis,"https://www.google.com/maps/dir/?api=1&destination=18.9747280000,73.0281760000",18.9747280000,73.0281760000
Indiyum,"https://www.google.com/maps/dir/?api=1&destination=19.0885400000,73.0139620000",19.0885400000,73.0139620000
Golden Dragon - The Taj Mahal Palace,"https://www.google.com/maps/dir/?api=1&destination=18.9221403825,72.8337553516",18.9221403825,72.8337553516
Wowfillss,"https://www.google.com/maps/dir/?api=1&destination=18.9845295000,72.8343897000",18.9845295000,72.8343897000
Peko Peko,"https://www.google.com/maps/dir/?api=1&destination=19.1257307790,72.8324310109",19.1257307790,72.8324310109
Classic Momos & Kitchen,"https://www.google.com/maps/dir/?api=1&destination=19.0866209578,73.0016737059",19.0866209578,73.0016737059
Copain Cake Shop,"https://www.google.com/maps/dir/?api=1&destination=19.2298339869,72.8538072109",19.2298339869,72.8538072109
Souk - The Taj Mahal Palace,"https://www.google.com/maps/dir/?api=1&destination=18.9221397481,72.8337563574",18.9221397481,72.8337563574
The Paleo Bakes,"https://www.google.com/maps/dir/?api=1&destination=19.1396135697,72.8094159812",19.1396135697,72.8094159812
Cafe Military,"https://www.google.com/maps/dir/?api=1&destination=18.9308191815,72.8319887817",18.9308191815,72.8319887817
Food And Taste Theory,"https://www.google.com/maps/dir/?api=1&destination=19.0874328600,72.8886642500",19.0874328600,72.8886642500
Subhash Pan Bhandar,"https://www.google.com/maps/dir/?api=1&destination=19.2099471604,72.8398624063",19.2099471604,72.8398624063
Kilo Party,"https://www.google.com/maps/dir/?api=1&destination=19.0400931114,72.8935609013",19.0400931114,72.8935609013
Jazzy Jim's Cookhouse,"https://www.google.com/maps/dir/?api=1&destination=19.0647280000,72.8260520000",19.0647280000,72.8260520000
South of Vindhyas - The Orchid,"https://www.google.com/maps/dir/?api=1&destination=19.0960772263,72.8547738120",19.0960772263,72.8547738120
230°Celsius,"https://www.google.com/maps/dir/?api=1&destination=19.0728021624,72.8698458150",19.0728021624,72.8698458150
Parisien Patisserie,"https://www.google.com/maps/dir/?api=1&destination=18.9964015921,72.8266233578",18.9964015921,72.8266233578
Soul Sugar Bakery & Patisserie,"https://www.google.com/maps/dir/?api=1&destination=19.2119376610,72.9850758612",19.2119376610,72.9850758612
R' ADDA,"https://www.google.com/maps/dir/?api=1&destination=19.1089715551,72.8254341334",19.1089715551,72.8254341334
China Inc - Taj Santacruz,"https://www.google.com/maps/dir/?api=1&destination=19.0817373627,72.8566771746",19.0817373627,72.8566771746
PEFE,"https://www.google.com/maps/dir/?api=1&destination=19.1411798558,72.8273733705",19.1411798558,72.8273733705
Little Loco Pops,"https://www.google.com/maps/dir/?api=1&destination=19.1745374000,72.8391316000",19.1745374000,72.8391316000
The Baking Girl,"https://www.google.com/maps/dir/?api=1&destination=19.0693992514,73.0104599521",19.0693992514,73.0104599521
Mostly Grills - The Orchid,"https://www.google.com/maps/dir/?api=1&destination=19.0962153625,72.8542014956",19.0962153625,72.8542014956
Mumbai Kitchen,"https://www.google.com/maps/dir/?api=1&destination=19.1443317043,72.9904332384",19.1443317043,72.9904332384
Sweet Treats,"https://www.google.com/maps/dir/?api=1&destination=19.1626094012,72.9415265098",19.1626094012,72.9415265098
Hungry & Skinny,"https://www.google.com/maps/dir/?api=1&destination=19.0303718473,72.8467094153",19.0303718473,72.8467094153
Maca Pao,"https://www.google.com/maps/dir/?api=1&destination=19.0352857968,72.8425137699",19.0352857968,72.8425137699
Kaiyo Pan Asian Kitchen,"https://www.google.com/maps/dir/?api=1&destination=19.0507100000,72.9108110000",19.0507100000,72.9108110000
Masala Kitchen,"https://www.google.com/maps/dir/?api=1&destination=18.9973603710,72.8532432767",18.9973603710,72.8532432767
Bakeology,"https://www.google.com/maps/dir/?api=1&destination=19.2606700149,72.9713070765",19.2606700149,72.9713070765
Fruitiffin,"https://www.google.com/maps/dir/?api=1&destination=19.1534312164,72.9987098649",19.1534312164,72.9987098649
The Bittersweet Bakery,"https://www.google.com/maps/dir/?api=1&destination=19.0265804254,72.8547781706",19.0265804254,72.8547781706
The Dessert Geek,"https://www.google.com/maps/dir/?api=1&destination=19.1358468203,72.8350837156",19.1358468203,72.8350837156
CFB Fresh Delights,"https://www.google.com/maps/dir/?api=1&destination=19.1378936469,72.8706330433",19.1378936469,72.8706330433
Tony's Street Style Gourmet,"https://www.google.com/maps/dir/?api=1&destination=19.0685161118,72.8401879594",19.0685161118,72.8401879594
The Dessertarian,"https://www.google.com/maps/dir/?api=1&destination=19.0540413958,72.8269579634",19.0540413958,72.8269579634
Sift Patisserie,"https://www.google.com/maps/dir/?api=1&destination=19.0751995900,72.9049032927",19.0751995900,72.9049032927
The Health Squadron,"https://www.google.com/maps/dir/?api=1&destination=19.1384432006,72.8065802157",19.1384432006,72.8065802157
Tender Fresh Ice Cream,"https://www.google.com/maps/dir/?api=1&destination=19.2266900000,73.1034950000",19.2266900000,73.1034950000
Saish Fast Food,"https://www.google.com/maps/dir/?api=1&destination=19.1137750000,72.8735980000",19.1137750000,72.8735980000
Finding Momos,"https://www.google.com/maps/dir/?api=1&destination=19.0068685000,72.8321893000",19.0068685000,72.8321893000
Sugar-y-Doodle,"https://www.google.com/maps/dir/?api=1&destination=19.2586427563,72.9843137786",19.2586427563,72.9843137786
Choco Kisses,"https://www.google.com/maps/dir/?api=1&destination=19.0700887751,72.8976110369",19.0700887751,72.8976110369
Fillings & More,"https://www.google.com/maps/dir/?api=1&destination=18.9763493978,72.8257321939",18.9763493978,72.8257321939
Channi's Home Bakery,"https://www.google.com/maps/dir/?api=1&destination=19.1460341398,72.8337999433",19.1460341398,72.8337999433
YummyWheels,"https://www.google.com/maps/dir/?api=1&destination=19.2129124814,72.8426267579",19.2129124814,72.8426267579
Chan Su Chinese,"https://www.google.com/maps/dir/?api=1&destination=19.1128770000,72.8420420000",19.1128770000,72.8420420000
Seno's Kitchen,"https://www.google.com/maps/dir/?api=1&destination=19.1603580000,72.8349630000",19.1603580000,72.8349630000
D Cake Creations,"https://www.google.com/maps/dir/?api=1&destination=19.1116538927,72.8677335754",19.1116538927,72.8677335754
Cup-a-luscious,"https://www.google.com/maps/dir/?api=1&destination=19.1755739044,72.9566840082",19.1755739044,72.9566840082
Foods Around Us,"https://www.google.com/maps/dir/?api=1&destination=19.1822188045,72.8187429411",19.1822188045,72.8187429411
Icekreamskee,"https://www.google.com/maps/dir/?api=1&destination=19.1145376660,72.8362618759",19.1145376660,72.8362618759
Apple A Day,"https://www.google.com/maps/dir/?api=1&destination=19.0861016489,72.8276858479",19.0861016489,72.8276858479
Alif Burger N Fries,"https://www.google.com/maps/dir/?api=1&destination=19.1396116692,72.8086515516",19.1396116692,72.8086515516
Ladu Samrat,"https://www.google.com/maps/dir/?api=1&destination=18.9947450000,72.8368020000",18.9947450000,72.8368020000
Hardeep Punjab,"https://www.google.com/maps/dir/?api=1&destination=19.0341311712,72.8630474210",19.0341311712,72.8630474210
Apsara Ice Creams,"https://www.google.com/maps/dir/?api=1&destination=19.1153442139,72.9076364636",19.1153442139,72.9076364636
Shakey Wakey,"https://www.google.com/maps/dir/?api=1&destination=19.1494316736,72.8314094245",19.1494316736,72.8314094245
Biryani Barbeque Chinese By  Borivali Biryani Centre,"https://www.google.com/maps/dir/?api=1&destination=19.2298200579,72.8477712348",19.2298200579,72.8477712348
Arsalan Shawarma King,"https://www.google.com/maps/dir/?api=1&destination=19.1914429322,72.8204851225",19.1914429322,72.8204851225
Chantilly,"https://www.google.com/maps/dir/?api=1&destination=19.0604202883,72.8295603767",19.0604202883,72.8295603767
Bhagat Tarachand,"https://www.google.com/maps/dir/?api=1&destination=19.0720609998,73.0091959611",19.0720609998,73.0091959611
Canto Cafe & Bar,"https://www.google.com/maps/dir/?api=1&destination=18.9563567000,72.8141284600",18.9563567000,72.8141284600
Doolally Taproom,"https://www.google.com/maps/dir/?api=1&destination=19.1363187773,72.8334676847",19.1363187773,72.8334676847
Libon - The Cake Expert,"https://www.google.com/maps/dir/?api=1&destination=19.2834571450,72.8631154820",19.2834571450,72.8631154820
Stir Fry Grill,"https://www.google.com/maps/dir/?api=1&destination=19.1808486559,72.8360667452",19.1808486559,72.8360667452
Butter Chicken Factory,"https://www.google.com/maps/dir/?api=1&destination=19.0653441222,72.8306154907",19.0653441222,72.8306154907
Ray's Cafe & Pizzeria,"https://www.google.com/maps/dir/?api=1&destination=19.0549727820,72.8284730762",19.0549727820,72.8284730762
Fatoush,"https://www.google.com/maps/dir/?api=1&destination=19.0333353211,73.0655521899",19.0333353211,73.0655521899
Granville IDC Kitchen,"https://www.google.com/maps/dir/?api=1&destination=19.2291584264,72.8560354561",19.2291584264,72.8560354561
Cafe Trofima,"https://www.google.com/maps/dir/?api=1&destination=19.0283588736,72.8411451727",19.0283588736,72.8411451727
Succulence,"https://www.google.com/maps/dir/?api=1&destination=19.0441101930,73.0785042420",19.0441101930,73.0785042420
Eat Around the Corner,"https://www.google.com/maps/dir/?api=1&destination=19.0623682274,72.8308065981",19.0623682274,72.8308065981
Oye Teri - The Kulcha Kulture,"https://www.google.com/maps/dir/?api=1&destination=19.2236816621,72.8527041525",19.2236816621,72.8527041525
Saptami - Holiday Inn,"https://www.google.com/maps/dir/?api=1&destination=19.1035088544,72.8874256834",19.1035088544,72.8874256834
The Fatty Bao,"https://www.google.com/maps/dir/?api=1&destination=19.1416179065,72.8338103369",19.1416179065,72.8338103369
Cake Star,"https://www.google.com/maps/dir/?api=1&destination=19.2357021290,72.8536687419",19.2357021290,72.8536687419
Bagdadi,"https://www.google.com/maps/dir/?api=1&destination=18.9229421556,72.8323310986",18.9229421556,72.8323310986
Panchratna Jalebi House,"https://www.google.com/maps/dir/?api=1&destination=18.9548640605,72.8170706704",18.9548640605,72.8170706704
Gypsy Corner,"https://www.google.com/maps/dir/?api=1&destination=19.0253243116,72.8401195630",19.0253243116,72.8401195630
Lotus Cafe - JW Marriott Mumbai Juhu,"https://www.google.com/maps/dir/?api=1&destination=19.1020255335,72.8271487355",19.1020255335,72.8271487355
Mani's Lunch Home,"https://www.google.com/maps/dir/?api=1&destination=19.0607996106,72.9017563909",19.0607996106,72.9017563909
Vrindavan,"https://www.google.com/maps/dir/?api=1&destination=19.1248026417,72.8380264342",19.1248026417,72.8380264342
Oh! Calcutta,"https://www.google.com/maps/dir/?api=1&destination=19.1396110357,72.8270793334",19.1396110357,72.8270793334
South High Restaurant & Bar,"https://www.google.com/maps/dir/?api=1&destination=19.0038294437,72.8278772905",19.0038294437,72.8278772905
Ling's Pavilion,"https://www.google.com/maps/dir/?api=1&destination=18.9234521422,72.8325812146",18.9234521422,72.8325812146
O' Tenga,"https://www.google.com/maps/dir/?api=1&destination=19.1451282879,72.8297957405",19.1451282879,72.8297957405
Baker's Treat,"https://www.google.com/maps/dir/?api=1&destination=19.0319743483,73.0216927081",19.0319743483,73.0216927081
Dark Temptations,"https://www.google.com/maps/dir/?api=1&destination=18.9430549989,72.8279369697",18.9430549989,72.8279369697
Butterfly High,"https://www.google.com/maps/dir/?api=1&destination=19.0593718000,72.8651976000",19.0593718000,72.8651976000
The Burger Brasserie,"https://www.google.com/maps/dir/?api=1&destination=19.1367660266,72.8294118494",19.1367660266,72.8294118494
Family Tree,"https://www.google.com/maps/dir/?api=1&destination=19.1935888099,72.9666085169",19.1935888099,72.9666085169
Mad Over Donuts,"https://www.google.com/maps/dir/?api=1&destination=19.1157623754,72.9087680206",19.1157623754,72.9087680206
Relish - International Veg Cuisine,"https://www.google.com/maps/dir/?api=1&destination=18.9303031917,72.8263209388",18.9303031917,72.8263209388
Taste Of Punjab,"https://www.google.com/maps/dir/?api=1&destination=19.0818780457,73.0050968751",19.0818780457,73.0050968751
Effingut,"https://www.google.com/maps/dir/?api=1&destination=19.0660440000,72.8332790000",19.0660440000,72.8332790000
Sarvi,"https://www.google.com/maps/dir/?api=1&destination=18.9667785057,72.8287858889",18.9667785057,72.8287858889
Grandmama's Cafe,"https://www.google.com/maps/dir/?api=1&destination=19.0530428197,72.8977334127",19.0530428197,72.8977334127
India Bistro,"https://www.google.com/maps/dir/?api=1&destination=19.2094342551,72.9621801898",19.2094342551,72.9621801898
Frisbees,"https://www.google.com/maps/dir/?api=1&destination=19.0560559595,72.8244423866",19.0560559595,72.8244423866
Pondichery Cafe - Sofitel,"https://www.google.com/maps/dir/?api=1&destination=19.0676050821,72.8692557290",19.0676050821,72.8692557290
The Peshwa Pavilion - ITC Maratha,"https://www.google.com/maps/dir/?api=1&destination=19.1114989792,72.8675857186",19.1114989792,72.8675857186
Thepla House by Tejal's Kitchen,"https://www.google.com/maps/dir/?api=1&destination=19.1116028885,72.8884083778",19.1116028885,72.8884083778
Maharaja Bhog,"https://www.google.com/maps/dir/?api=1&destination=19.0013384193,72.8292549402",19.0013384193,72.8292549402
Foodies Family,"https://www.google.com/maps/dir/?api=1&destination=19.2026136000,73.1874393000",19.2026136000,73.1874393000
Pali Bhavan,"https://www.google.com/maps/dir/?api=1&destination=19.0619309176,72.8295201436",19.0619309176,72.8295201436
Sweet Passions,"https://www.google.com/maps/dir/?api=1&destination=19.0464275374,72.9083294794",19.0464275374,72.9083294794
Shree Sunders,"https://www.google.com/maps/dir/?api=1&destination=18.9966494989,72.8267648443",18.9966494989,72.8267648443
Tamak,"https://www.google.com/maps/dir/?api=1&destination=19.0771430000,72.8311450000",19.0771430000,72.8311450000
House of Mandarin,"https://www.google.com/maps/dir/?api=1&destination=19.0548821000,72.8266934000",19.0548821000,72.8266934000
Mahesh Lunch Home,"https://www.google.com/maps/dir/?api=1&destination=19.1036745470,72.8269291297",19.1036745470,72.8269291297
Gurukripa,"https://www.google.com/maps/dir/?api=1&destination=19.1169281534,72.8891399503",19.1169281534,72.8891399503
Thakur Fast Food Corner,"https://www.google.com/maps/dir/?api=1&destination=19.1637213268,72.8435735777",19.1637213268,72.8435735777
Hotel Sunny,"https://www.google.com/maps/dir/?api=1&destination=19.0640667534,72.8961076587",19.0640667534,72.8961076587
Scoop Gelateria,"https://www.google.com/maps/dir/?api=1&destination=19.1449477505,72.9347297921",19.1449477505,72.9347297921
Ayub's,"https://www.google.com/maps/dir/?api=1&destination=18.9282988400,72.8328732401",18.9282988400,72.8328732401
Good Flippin' Burgers,"https://www.google.com/maps/dir/?api=1&destination=19.0745070000,72.8230120000",19.0745070000,72.8230120000
Hotel Sai Palace,"https://www.google.com/maps/dir/?api=1&destination=19.1154817004,72.8605264798",19.1154817004,72.8605264798
Cafe Churchill,"https://www.google.com/maps/dir/?api=1&destination=18.9199764005,72.8301756084",18.9199764005,72.8301756084
Chocolateria San Churro,"https://www.google.com/maps/dir/?api=1&destination=19.0619372554,72.8346200287",19.0619372554,72.8346200287
The Red Turtle - Pan Asian Bistro,"https://www.google.com/maps/dir/?api=1&destination=19.1814385993,72.8361086547",19.1814385993,72.8361086547
Lord Of Bar- B-Que,"https://www.google.com/maps/dir/?api=1&destination=19.2034423000,72.9689698000",19.2034423000,72.9689698000
LSD - Love Sugar & Dough,"https://www.google.com/maps/dir/?api=1&destination=19.1513582947,72.8322583437",19.1513582947,72.8322583437
Maiz Mexican Kitchen,"https://www.google.com/maps/dir/?api=1&destination=19.0685278364,72.8401819244",19.0685278364,72.8401819244
Masque,"https://www.google.com/maps/dir/?api=1&destination=18.9899755403,72.8254200518",18.9899755403,72.8254200518
Bunty Juice Corner,"https://www.google.com/maps/dir/?api=1&destination=19.2314611455,72.8524138033",19.2314611455,72.8524138033
Guilt Trip,"https://www.google.com/maps/dir/?api=1&destination=19.0708800127,72.8233648092",19.0708800127,72.8233648092
Luna,"https://www.google.com/maps/dir/?api=1&destination=18.9945717618,72.8236792982",18.9945717618,72.8236792982
Khasiyat The Paratha House,"https://www.google.com/maps/dir/?api=1&destination=19.1004338477,72.8396189958",19.1004338477,72.8396189958
Diet With Delight,"https://www.google.com/maps/dir/?api=1&destination=19.2091866000,73.1611042000",19.2091866000,73.1611042000
The Daily Bar & Kitchen,"https://www.google.com/maps/dir/?api=1&destination=19.0609420000,72.8369370000",19.0609420000,72.8369370000
Khow Chow,"https://www.google.com/maps/dir/?api=1&destination=19.0635530779,72.8347504511",19.0635530779,72.8347504511
Hornbys Pavilion - ITC Grand Central,"https://www.google.com/maps/dir/?api=1&destination=18.9982076262,72.8388904408",18.9982076262,72.8388904408
Revitilizing Life,"https://www.google.com/maps/dir/?api=1&destination=19.3760387000,72.8297927000",19.3760387000,72.8297927000
Hit & Run,"https://www.google.com/maps/dir/?api=1&destination=19.1393557408,72.8314701095",19.1393557408,72.8314701095
Bonnie's Bakery,"https://www.google.com/maps/dir/?api=1&destination=19.1673477797,72.9443361238",19.1673477797,72.9443361238
Flag's II,"https://www.google.com/maps/dir/?api=1&destination=19.1775556373,72.8367825598",19.1775556373,72.8367825598
Flour Fire,"https://www.google.com/maps/dir/?api=1&destination=19.2098154515,72.8731553257",19.2098154515,72.8731553257
Milliways Broth Noodle & Bao,"https://www.google.com/maps/dir/?api=1&destination=18.9630652220,72.8165758029",18.9630652220,72.8165758029
The Vanilla Bean,"https://www.google.com/maps/dir/?api=1&destination=19.0617065581,72.8300002590",19.0617065581,72.8300002590
Frozen Bottle,"https://www.google.com/maps/dir/?api=1&destination=19.1606952630,72.9454398528",19.1606952630,72.9454398528
The White Creme,"https://www.google.com/maps/dir/?api=1&destination=19.2587080000,72.8600520000",19.2587080000,72.8600520000
The Belgian Waffle Co.,"https://www.google.com/maps/dir/?api=1&destination=19.2208419037,73.0916735530",19.2208419037,73.0916735530
Candy Kisses,"https://www.google.com/maps/dir/?api=1&destination=19.1893141254,72.9689809307",19.1893141254,72.9689809307
"The Konkan Cafe - President, Mumbai - IHCL SeleQtions","https://www.google.com/maps/dir/?api=1&destination=18.9145192229,72.8211868554",18.9145192229,72.8211868554
Heerson,"https://www.google.com/maps/dir/?api=1&destination=19.1002972991,72.8448570147",19.1002972991,72.8448570147
Enrich Kulfi,"https://www.google.com/maps/dir/?api=1&destination=19.1792642229,72.8483662324",19.1792642229,72.8483662324
Yoobee  Cakes,"https://www.google.com/maps/dir/?api=1&destination=19.0291018162,73.0230867863",19.0291018162,73.0230867863
Ribbons & Balloons,"https://www.google.com/maps/dir/?api=1&destination=19.2540874259,73.1417617947",19.2540874259,73.1417617947
Garage Inc. Public House,"https://www.google.com/maps/dir/?api=1&destination=18.9199990000,72.8307510000",18.9199990000,72.8307510000
Chi Na Chi Ni,"https://www.google.com/maps/dir/?api=1&destination=19.0338605002,73.0672087893",19.0338605002,73.0672087893
The Serial Griller,"https://www.google.com/maps/dir/?api=1&destination=19.1236760000,72.8265130000",19.1236760000,72.8265130000
Rikē - Terrace Bar & Grill,"https://www.google.com/maps/dir/?api=1&destination=19.1359548321,72.8331954405",19.1359548321,72.8331954405
Take-Away-Express,"https://www.google.com/maps/dir/?api=1&destination=19.0012551000,72.8253451000",19.0012551000,72.8253451000
Cafe Delhi Heights,"https://www.google.com/maps/dir/?api=1&destination=19.0874328600,72.8886642500",19.0874328600,72.8886642500
TIB - The Ice-cream Bakery,"https://www.google.com/maps/dir/?api=1&destination=19.0890622260,73.0048745871",19.0890622260,73.0048745871
Kala Ghoda Cafe,"https://www.google.com/maps/dir/?api=1&destination=18.9284691474,72.8323126584",18.9284691474,72.8323126584
Olea,"https://www.google.com/maps/dir/?api=1&destination=19.0606213262,72.8442016605",19.0606213262,72.8442016605
One By Two,"https://www.google.com/maps/dir/?api=1&destination=19.0606675760,72.9034703035",19.0606675760,72.9034703035
Tushti,"https://www.google.com/maps/dir/?api=1&destination=19.2162332109,72.8355740330",19.2162332109,72.8355740330
Agent Jack's Bar,"https://www.google.com/maps/dir/?api=1&destination=19.1317777983,72.8352989629",19.1317777983,72.8352989629
Leo's Boulangerie,"https://www.google.com/maps/dir/?api=1&destination=19.1403870540,72.8260550648",19.1403870540,72.8260550648
Oh Dough,"https://www.google.com/maps/dir/?api=1&destination=18.9296067456,72.8319213912",18.9296067456,72.8319213912
Country Of Origin,"https://www.google.com/maps/dir/?api=1&destination=19.0505490471,72.8268952668",19.0505490471,72.8268952668
Seasonal Tastes - The Westin Mumbai Garden City,"https://www.google.com/maps/dir/?api=1&destination=19.1741219485,72.8597154468",19.1741219485,72.8597154468
Cake Bites,"https://www.google.com/maps/dir/?api=1&destination=18.9540592697,72.8166136891",18.9540592697,72.8166136891
Captain Momos,"https://www.google.com/maps/dir/?api=1&destination=19.2046110000,72.9773890000",19.2046110000,72.9773890000
91 Rosewood Villa,"https://www.google.com/maps/dir/?api=1&destination=19.0572966295,73.0038141087",19.0572966295,73.0038141087
Chasing Flavours,"https://www.google.com/maps/dir/?api=1&destination=19.1792498132,72.8364640474",19.1792498132,72.8364640474
Sancha Ice Creams,"https://www.google.com/maps/dir/?api=1&destination=19.1295332364,72.8153158352",19.1295332364,72.8153158352
Tandoor Tadka Shawarma,"https://www.google.com/maps/dir/?api=1&destination=19.2290400000,72.8441300000",19.2290400000,72.8441300000
Mani's Lunch Home,"https://www.google.com/maps/dir/?api=1&destination=19.0227483453,72.8495414928",19.0227483453,72.8495414928
Jagdamba Bhelpuri & Sandwich House,"https://www.google.com/maps/dir/?api=1&destination=19.3789468895,72.8289833665",19.3789468895,72.8289833665
The Bawa Kitchen,"https://www.google.com/maps/dir/?api=1&destination=19.0698568217,72.8379989415",19.0698568217,72.8379989415
Yazdani Bakery & Restaurant,"https://www.google.com/maps/dir/?api=1&destination=18.9331501543,72.8335558623",18.9331501543,72.8335558623
Mama Z's,"https://www.google.com/maps/dir/?api=1&destination=18.9145043158,72.8212022781",18.9145043158,72.8212022781
And Chillies,"https://www.google.com/maps/dir/?api=1&destination=19.0390335999,72.8427058831",19.0390335999,72.8427058831
Pincuk,"https://www.google.com/maps/dir/?api=1&destination=19.1611000081,72.9916650429",19.1611000081,72.9916650429
The Beer Cafe,"https://www.google.com/maps/dir/?api=1&destination=19.0999000000,72.8750890000",19.0999000000,72.8750890000
Fresh Catch,"https://www.google.com/maps/dir/?api=1&destination=19.0329885815,72.8422230855",19.0329885815,72.8422230855
Sweet Bengal,"https://www.google.com/maps/dir/?api=1&destination=19.2123248670,72.8731905296",19.2123248670,72.8731905296
Taj Icecream,"https://www.google.com/maps/dir/?api=1&destination=18.9600798860,72.8304880857",18.9600798860,72.8304880857
Chilli Oyster,"https://www.google.com/maps/dir/?api=1&destination=19.1180723818,72.9036091268",19.1180723818,72.9036091268
Fruitiffin,"https://www.google.com/maps/dir/?api=1&destination=19.1231772804,73.0007054283",19.1231772804,73.0007054283
Brownie Point,"https://www.google.com/maps/dir/?api=1&destination=19.3703669105,72.8199540451",19.3703669105,72.8199540451
Shikara,"https://www.google.com/maps/dir/?api=1&destination=19.0680512496,73.0104663223",19.0680512496,73.0104663223
Brijwasi Sweets,"https://www.google.com/maps/dir/?api=1&destination=18.9627107260,72.8135589883",18.9627107260,72.8135589883
Waffles By Di Bella,"https://www.google.com/maps/dir/?api=1&destination=19.1890785396,72.8345476091",19.1890785396,72.8345476091
Ganesh Snack & Juice Corner,"https://www.google.com/maps/dir/?api=1&destination=19.2092040000,72.8672940000",19.2092040000,72.8672940000
Atul Dairy,"https://www.google.com/maps/dir/?api=1&destination=19.1304828869,72.8364053741",19.1304828869,72.8364053741
Boteco - Restaurante Brasileiro,"https://www.google.com/maps/dir/?api=1&destination=19.0611139689,72.8676195815",19.0611139689,72.8676195815
Yeda Republic,"https://www.google.com/maps/dir/?api=1&destination=19.1088945723,72.8254408389",19.1088945723,72.8254408389
Mockingbird Cafe Bar,"https://www.google.com/maps/dir/?api=1&destination=18.9333010000,72.8262620000",18.9333010000,72.8262620000
Pabrai's Fresh and Naturelle Ice Creams,"https://www.google.com/maps/dir/?api=1&destination=19.1290945202,72.8157587349",19.1290945202,72.8157587349
Indigo Delicatessen,"https://www.google.com/maps/dir/?api=1&destination=18.9946110723,72.8237195313",18.9946110723,72.8237195313
Suraj Lama Momos,"https://www.google.com/maps/dir/?api=1&destination=19.1431850000,72.8245640000",19.1431850000,72.8245640000
Slay Coffee,"https://www.google.com/maps/dir/?api=1&destination=19.1922370000,72.8347710000",19.1922370000,72.8347710000
Squisito,"https://www.google.com/maps/dir/?api=1&destination=19.1769973471,72.8366471082",19.1769973471,72.8366471082
The Little Cart,"https://www.google.com/maps/dir/?api=1&destination=19.2489625281,72.8592755646",19.2489625281,72.8592755646
Le Gateau,"https://www.google.com/maps/dir/?api=1&destination=19.4213644404,72.8114219382",19.4213644404,72.8114219382
Jagdish Chaurasia Pan Bhandar,"https://www.google.com/maps/dir/?api=1&destination=19.1018329099,72.8452569991",19.1018329099,72.8452569991
Bombay Bizare Baker,"https://www.google.com/maps/dir/?api=1&destination=19.0628866600,72.8292328119",19.0628866600,72.8292328119
Viaan,"https://www.google.com/maps/dir/?api=1&destination=19.1287878933,72.8689157590",19.1287878933,72.8689157590
Biryani Hut & Kebab Shop,"https://www.google.com/maps/dir/?api=1&destination=19.1111650000,72.8909440000",19.1111650000,72.8909440000
99 Pancakes,"https://www.google.com/maps/dir/?api=1&destination=19.0207714138,73.0191204697",19.0207714138,73.0191204697
Hari Om Juice & Milk Shake Centre,"https://www.google.com/maps/dir/?api=1&destination=19.1003353172,72.8425033763",19.1003353172,72.8425033763
Occasions,"https://www.google.com/maps/dir/?api=1&destination=19.1171942537,72.8800831363",19.1171942537,72.8800831363
Namak - Sahara Star,"https://www.google.com/maps/dir/?api=1&destination=19.0948061142,72.8542796150",19.0948061142,72.8542796150
Oheka,"https://www.google.com/maps/dir/?api=1&destination=19.0551816000,72.8283715000",19.0551816000,72.8283715000
Detox Cold Pressed Juice Bar,"https://www.google.com/maps/dir/?api=1&destination=19.2057630000,72.8651350000",19.2057630000,72.8651350000
Aapke Prathe,"https://www.google.com/maps/dir/?api=1&destination=19.1377930000,72.8117440000",19.1377930000,72.8117440000
Sindulgence,"https://www.google.com/maps/dir/?api=1&destination=19.0441697750,72.8920028731",19.0441697750,72.8920028731
Cooked - Home Food Soul Food,"https://www.google.com/maps/dir/?api=1&destination=19.1082490000,72.8653450000",19.1082490000,72.8653450000
Rasile Amritsari Bite,"https://www.google.com/maps/dir/?api=1&destination=19.2876486823,72.8701053187",19.2876486823,72.8701053187
Khas-am-Khas Biryani,"https://www.google.com/maps/dir/?api=1&destination=19.1279030000,72.9191580000",19.1279030000,72.9191580000
Tiara Restaurant & Bar - Meluha The Fern,"https://www.google.com/maps/dir/?api=1&destination=19.1178664720,72.9110867903",19.1178664720,72.9110867903
House of Nomad - Taj Lands End,"https://www.google.com/maps/dir/?api=1&destination=19.0442052707,72.8193391487",19.0442052707,72.8193391487
Food For Thought,"https://www.google.com/maps/dir/?api=1&destination=18.9312431990,72.8315844387",18.9312431990,72.8315844387
Road House Bluez,"https://www.google.com/maps/dir/?api=1&destination=19.1271622542,72.8352171555",19.1271622542,72.8352171555
Leavessence,"https://www.google.com/maps/dir/?api=1&destination=19.0619315513,72.8295198083",19.0619315513,72.8295198083
Baskin Robbins,"https://www.google.com/maps/dir/?api=1&destination=19.0977820599,72.8487086669",19.0977820599,72.8487086669
Exquisite,"https://www.google.com/maps/dir/?api=1&destination=19.0585027484,72.9006231576",19.0585027484,72.9006231576
Goodness To Go by Smoke House Deli ,"https://www.google.com/maps/dir/?api=1&destination=18.9945360000,72.8248130000",18.9945360000,72.8248130000
Vibe,"https://www.google.com/maps/dir/?api=1&destination=19.0598584333,72.8238372132",19.0598584333,72.8238372132
Chaurasia Paan House,"https://www.google.com/maps/dir/?api=1&destination=19.1245989577,72.8516131639",19.1245989577,72.8516131639
Auromirra Patisserie,"https://www.google.com/maps/dir/?api=1&destination=19.1959173581,72.8262699768",19.1959173581,72.8262699768
The Red Wok,"https://www.google.com/maps/dir/?api=1&destination=19.1501522000,72.8329773000",19.1501522000,72.8329773000
Street Wok,"https://www.google.com/maps/dir/?api=1&destination=19.1124186377,72.8668849915",19.1124186377,72.8668849915
Jay Maa Shitala Juice Center,"https://www.google.com/maps/dir/?api=1&destination=19.0805108172,72.9043048248",19.0805108172,72.9043048248
Instawich,"https://www.google.com/maps/dir/?api=1&destination=19.1917691000,72.8400324000",19.1917691000,72.8400324000
Mumbai Pakwaan,"https://www.google.com/maps/dir/?api=1&destination=19.2835590000,72.9548610000",19.2835590000,72.9548610000
Mystery Box,"https://www.google.com/maps/dir/?api=1&destination=19.2132230000,72.8674190000",19.2132230000,72.8674190000
Chetak Sweet Point,"https://www.google.com/maps/dir/?api=1&destination=19.0186055422,73.0155514553",19.0186055422,73.0155514553
Rivea - Taj Santacruz,"https://www.google.com/maps/dir/?api=1&destination=19.0818812142,72.8576176241",19.0818812142,72.8576176241
Foodeementals,"https://www.google.com/maps/dir/?api=1&destination=19.0812126520,72.8528023884",19.0812126520,72.8528023884
Jai Mata Di Butter Papdi Corner,"https://www.google.com/maps/dir/?api=1&destination=19.2355587281,73.1606046483",19.2355587281,73.1606046483
Mariyam’s Cakery,"https://www.google.com/maps/dir/?api=1&destination=19.1491418709,72.9319309071",19.1491418709,72.9319309071
Gezond,"https://www.google.com/maps/dir/?api=1&destination=19.0591729867,72.8900770471",19.0591729867,72.8900770471
Harsh Chocolates,"https://www.google.com/maps/dir/?api=1&destination=19.1299443933,72.8370256349",19.1299443933,72.8370256349
Popcorn Bar,"https://www.google.com/maps/dir/?api=1&destination=19.1975543514,72.9683040082",19.1975543514,72.9683040082
Mini Malvan,"https://www.google.com/maps/dir/?api=1&destination=18.9979102675,72.8247796744",18.9979102675,72.8247796744
Hashtag 99 the Shawarma Specialist,"https://www.google.com/maps/dir/?api=1&destination=19.0326880000,73.0679390000",19.0326880000,73.0679390000
Maheshwari Tiffin Service,"https://www.google.com/maps/dir/?api=1&destination=19.2597486519,72.9661803693",19.2597486519,72.9661803693
KetoBuzz,"https://www.google.com/maps/dir/?api=1&destination=19.2564913977,72.9709087685",19.2564913977,72.9709087685
Pikaboos,"https://www.google.com/maps/dir/?api=1&destination=19.2274913567,72.9704397172",19.2274913567,72.9704397172
Mumma's Rolls & More,"https://www.google.com/maps/dir/?api=1&destination=19.1108910000,72.8624880000",19.1108910000,72.8624880000
Sugar Sins,"https://www.google.com/maps/dir/?api=1&destination=19.1462067579,72.9364266247",19.1462067579,72.9364266247
Swiss Waffle,"https://www.google.com/maps/dir/?api=1&destination=19.1793527299,72.8376794234",19.1793527299,72.8376794234
Aaichi Rasoi,"https://www.google.com/maps/dir/?api=1&destination=19.1970322251,72.9916717485",19.1970322251,72.9916717485
Goodie Bag Co.,"https://www.google.com/maps/dir/?api=1&destination=19.0614793464,72.8327696398",19.0614793464,72.8327696398
Qutuba Irani Chai Hotel,"https://www.google.com/maps/dir/?api=1&destination=19.2687490480,72.9662118853",19.2687490480,72.9662118853
Flavia's Confectionery,"https://www.google.com/maps/dir/?api=1&destination=19.0776562359,72.8631071001",19.0776562359,72.8631071001
Paratha Box,"https://www.google.com/maps/dir/?api=1&destination=19.1286301449,72.8193381429",19.1286301449,72.8193381429
Swadish,"https://www.google.com/maps/dir/?api=1&destination=19.0778165678,72.8287798539",19.0778165678,72.8287798539
The Taste Of Mangalore,"https://www.google.com/maps/dir/?api=1&destination=19.2572180000,72.8639850000",19.2572180000,72.8639850000
Pikaboos,"https://www.google.com/maps/dir/?api=1&destination=19.2531856505,72.9726424813",19.2531856505,72.9726424813
Bhookemon,"https://www.google.com/maps/dir/?api=1&destination=19.1363912000,72.8232643000",19.1363912000,72.8232643000
Bite Fresh,"https://www.google.com/maps/dir/?api=1&destination=19.1221578971,72.8277874365",19.1221578971,72.8277874365
Shree's,"https://www.google.com/maps/dir/?api=1&destination=19.0390551515,72.8426183760",19.0390551515,72.8426183760
Fork It,"https://www.google.com/maps/dir/?api=1&destination=19.0928002592,72.9122790322",19.0928002592,72.9122790322
Three Kingdom,"https://www.google.com/maps/dir/?api=1&destination=19.1224448962,72.9158215597",19.1224448962,72.9158215597
Bikaji Food Junxon,"https://www.google.com/maps/dir/?api=1&destination=19.1870380481,72.8355467319",19.1870380481,72.8355467319
A Vanilla Bean,"https://www.google.com/maps/dir/?api=1&destination=19.0748475512,72.8270240128",19.0748475512,72.8270240128
Dale's Eden Cake Shop,"https://www.google.com/maps/dir/?api=1&destination=19.1428706046,72.8246016428",19.1428706046,72.8246016428
Sahara Hotel,"https://www.google.com/maps/dir/?api=1&destination=19.0797167739,72.8801867366",19.0797167739,72.8801867366
Nawab Seekh Corner,"https://www.google.com/maps/dir/?api=1&destination=19.0768710511,72.8784479946",19.0768710511,72.8784479946
The Bombay Curry,"https://www.google.com/maps/dir/?api=1&destination=19.0667396284,72.8389110533",19.0667396284,72.8389110533
Eva's Pizza,"https://www.google.com/maps/dir/?api=1&destination=19.1301023000,72.8646570000",19.1301023000,72.8646570000
King's Shawarma,"https://www.google.com/maps/dir/?api=1&destination=18.9617116015,72.8309051692",18.9617116015,72.8309051692
Facing East,"https://www.google.com/maps/dir/?api=1&destination=19.1097949205,72.8272110969",19.1097949205,72.8272110969
Veggies,"https://www.google.com/maps/dir/?api=1&destination=19.2045600000,72.9772210000",19.2045600000,72.9772210000
Banana Leaf,"https://www.google.com/maps/dir/?api=1&destination=19.2203822191,72.8410295025",19.2203822191,72.8410295025
Navaratna Veg Restaurant,"https://www.google.com/maps/dir/?api=1&destination=19.0736500000,72.9981500000",19.0736500000,72.9981500000
Tandoor Tawa Aur Karahi,"https://www.google.com/maps/dir/?api=1&destination=19.2577812034,72.9702154174",19.2577812034,72.9702154174
Ustaadi,"https://www.google.com/maps/dir/?api=1&destination=18.9456588356,72.8341412544",18.9456588356,72.8341412544
Swati Snacks,"https://www.google.com/maps/dir/?api=1&destination=18.9666012618,72.8136059269",18.9666012618,72.8136059269
Status Veg Restaurant,"https://www.google.com/maps/dir/?api=1&destination=18.9244048741,72.8216193616",18.9244048741,72.8216193616
Gymkhana 91 Bar & Kitchen,"https://www.google.com/maps/dir/?api=1&destination=18.9927742479,72.8245329112",18.9927742479,72.8245329112
Candies,"https://www.google.com/maps/dir/?api=1&destination=19.0703311851,72.8287845477",19.0703311851,72.8287845477
The Post Office,"https://www.google.com/maps/dir/?api=1&destination=19.4570776625,72.8037675843",19.4570776625,72.8037675843
The Punjabi's Kitchen,"https://www.google.com/maps/dir/?api=1&destination=19.1114973952,72.8636103496",19.1114973952,72.8636103496
Snickerdoodle-Virgin Bar & Cafe,"https://www.google.com/maps/dir/?api=1&destination=19.2046100000,73.1823900000",19.2046100000,73.1823900000
Dara's Dhaba,"https://www.google.com/maps/dir/?api=1&destination=19.2760238250,72.8878595307",19.2760238250,72.8878595307
Celebrity,"https://www.google.com/maps/dir/?api=1&destination=19.3829398874,72.8279808909",19.3829398874,72.8279808909
Kerala Cafe,"https://www.google.com/maps/dir/?api=1&destination=19.3720435954,72.8224971145",19.3720435954,72.8224971145
Rodeo Pizza,"https://www.google.com/maps/dir/?api=1&destination=19.1309535921,72.8139408678",19.1309535921,72.8139408678
Naaz Hotel,"https://www.google.com/maps/dir/?api=1&destination=19.0846241922,72.8892733902",19.0846241922,72.8892733902
Farmer's Cafe,"https://www.google.com/maps/dir/?api=1&destination=19.0654204915,72.8306460008",19.0654204915,72.8306460008
Persia Darbar,"https://www.google.com/maps/dir/?api=1&destination=19.1306425340,72.8139046580",19.1306425340,72.8139046580
Arbab,"https://www.google.com/maps/dir/?api=1&destination=19.0599950000,72.8341330000",19.0599950000,72.8341330000
Pishu's,"https://www.google.com/maps/dir/?api=1&destination=19.1283870000,72.8252600000",19.1283870000,72.8252600000
MM Mithaiwala,"https://www.google.com/maps/dir/?api=1&destination=19.1870104994,72.8485128656",19.1870104994,72.8485128656
Ming Yang,"https://www.google.com/maps/dir/?api=1&destination=19.2548820000,73.1394820000",19.2548820000,73.1394820000
Earth Cafe @ Waterfield,"https://www.google.com/maps/dir/?api=1&destination=19.0590740000,72.8340520000",19.0590740000,72.8340520000
Punjab Da Chulah,"https://www.google.com/maps/dir/?api=1&destination=19.0685145274,72.8401879594",19.0685145274,72.8401879594
Sion Lunch Home,"https://www.google.com/maps/dir/?api=1&destination=19.0454745524,72.8642188758",19.0454745524,72.8642188758
DANIEL PÂTISSIER,"https://www.google.com/maps/dir/?api=1&destination=19.0619385230,72.8294936568",19.0619385230,72.8294936568
Tea and Conversations,"https://www.google.com/maps/dir/?api=1&destination=19.1756169720,72.9436521605",19.1756169720,72.9436521605
Sneha Restaurant,"https://www.google.com/maps/dir/?api=1&destination=19.0367687643,72.8423987702",19.0367687643,72.8423987702
Ganache,"https://www.google.com/maps/dir/?api=1&destination=19.0636684253,73.0109930411",19.0636684253,73.0109930411
Canton House,"https://www.google.com/maps/dir/?api=1&destination=19.2843062208,72.8707597777",19.2843062208,72.8707597777
Cake Centre-The Dessert Maker,"https://www.google.com/maps/dir/?api=1&destination=18.9581760921,72.8315673396",18.9581760921,72.8315673396
Health Juice & Fast Food,"https://www.google.com/maps/dir/?api=1&destination=19.0274241685,72.8548073396",19.0274241685,72.8548073396
Saroj,"https://www.google.com/maps/dir/?api=1&destination=19.0619060000,72.8994350000",19.0619060000,72.8994350000
Urban Tadka,"https://www.google.com/maps/dir/?api=1&destination=19.1036029476,72.8865003213",19.1036029476,72.8865003213
August Cafe,"https://www.google.com/maps/dir/?api=1&destination=19.1372516011,72.8269767389",19.1372516011,72.8269767389
The Cake Factory,"https://www.google.com/maps/dir/?api=1&destination=19.2123251837,72.8731905296",19.2123251837,72.8731905296
CinCin,"https://www.google.com/maps/dir/?api=1&destination=19.0609700993,72.8344647959",19.0609700993,72.8344647959
The Barn Grill,"https://www.google.com/maps/dir/?api=1&destination=19.1154211937,72.8835280985",19.1154211937,72.8835280985
Girgaon Katta,"https://www.google.com/maps/dir/?api=1&destination=19.2309188666,72.8521261364",19.2309188666,72.8521261364
Vig,"https://www.google.com/maps/dir/?api=1&destination=19.0457046384,72.8952795267",19.0457046384,72.8952795267
The Bakerie - The Shalimar Hotel,"https://www.google.com/maps/dir/?api=1&destination=18.9642587072,72.8060340509",18.9642587072,72.8060340509
Khane Khas,"https://www.google.com/maps/dir/?api=1&destination=19.0654734113,72.8308729827",19.0654734113,72.8308729827
J.J Jalebi,"https://www.google.com/maps/dir/?api=1&destination=19.2817796000,72.8580381000",19.2817796000,72.8580381000
Carter's Blue,"https://www.google.com/maps/dir/?api=1&destination=19.0707348841,72.8228793293",19.0707348841,72.8228793293
The Bombay Canteen,"https://www.google.com/maps/dir/?api=1&destination=19.0601838848,72.8642698377",19.0601838848,72.8642698377
Tossin Pizza,"https://www.google.com/maps/dir/?api=1&destination=19.0561164879,72.8350796923",19.0561164879,72.8350796923
Shahnaz,"https://www.google.com/maps/dir/?api=1&destination=19.0399381309,72.8413074464",19.0399381309,72.8413074464
TRP - Thane Republic Lounge,"https://www.google.com/maps/dir/?api=1&destination=19.2555051247,72.9851248115",19.2555051247,72.9851248115
Farmhouse Garden Family Restaurant & Bar,"https://www.google.com/maps/dir/?api=1&destination=19.3449105581,72.8125897050",19.3449105581,72.8125897050
Gondola,"https://www.google.com/maps/dir/?api=1&destination=19.0628828573,72.8292478994",19.0628828573,72.8292478994
Harish Lunch Home,"https://www.google.com/maps/dir/?api=1&destination=19.1086205385,72.8404042125",19.1086205385,72.8404042125
Toshin,"https://www.google.com/maps/dir/?api=1&destination=19.0696058553,72.9003763944",19.0696058553,72.9003763944
Deepak,"https://www.google.com/maps/dir/?api=1&destination=19.2281036095,72.8479204327",19.2281036095,72.8479204327
Suruchi Misal House,"https://www.google.com/maps/dir/?api=1&destination=19.1876013707,72.9664425552",19.1876013707,72.9664425552
Shabri Restaurant And Bar,"https://www.google.com/maps/dir/?api=1&destination=19.0986434996,72.8453170136",19.0986434996,72.8453170136
Papa Pancho Da Dhaba,"https://www.google.com/maps/dir/?api=1&destination=19.0619302838,72.8295194730",19.0619302838,72.8295194730
Khyber,"https://www.google.com/maps/dir/?api=1&destination=18.9282268478,72.8315562755",18.9282268478,72.8315562755
Trupti,"https://www.google.com/maps/dir/?api=1&destination=19.0219445164,72.8423109278",19.0219445164,72.8423109278
All Elements,"https://www.google.com/maps/dir/?api=1&destination=19.0686384271,72.8344825655",19.0686384271,72.8344825655
The Fabulous 49,"https://www.google.com/maps/dir/?api=1&destination=19.0424973000,73.0634876000",19.0424973000,73.0634876000
Something's Fishy - The International By Tunga,"https://www.google.com/maps/dir/?api=1&destination=19.1178471481,72.8649544716",19.1178471481,72.8649544716
Blue Tokai Coffee Roasters,"https://www.google.com/maps/dir/?api=1&destination=19.0598742781,72.8238097206",19.0598742781,72.8238097206
MexiChino,"https://www.google.com/maps/dir/?api=1&destination=19.2277569620,72.8485490754",19.2277569620,72.8485490754
Melting Pot,"https://www.google.com/maps/dir/?api=1&destination=19.1011458000,72.8273790000",19.1011458000,72.8273790000
Popular,"https://www.google.com/maps/dir/?api=1&destination=19.0057086239,72.8308713064",19.0057086239,72.8308713064
Graduate Vadapav,"https://www.google.com/maps/dir/?api=1&destination=18.9766569407,72.8330868110",18.9766569407,72.8330868110
The Bagel Shop,"https://www.google.com/maps/dir/?api=1&destination=19.0631465094,72.8249959275",19.0631465094,72.8249959275
Ayyappan Idli Stall,"https://www.google.com/maps/dir/?api=1&destination=19.0329601000,72.8538378000",19.0329601000,72.8538378000
Copper Chimney,"https://www.google.com/maps/dir/?api=1&destination=18.9276147544,72.8323515505",18.9276147544,72.8323515505
Jimmy Boy,"https://www.google.com/maps/dir/?api=1&destination=18.9307963473,72.8349003196",18.9307963473,72.8349003196
Cake Box,"https://www.google.com/maps/dir/?api=1&destination=19.0542008000,72.9122915000",19.0542008000,72.9122915000
Younion,"https://www.google.com/maps/dir/?api=1&destination=18.9981600000,72.8281400000",18.9981600000,72.8281400000
Rolls On Coals,"https://www.google.com/maps/dir/?api=1&destination=19.3863328308,72.8269921616",19.3863328308,72.8269921616
Hotel Sai Palace Garden,"https://www.google.com/maps/dir/?api=1&destination=19.2764811000,72.8898481000",19.2764811000,72.8898481000
Shabari,"https://www.google.com/maps/dir/?api=1&destination=19.1361331622,72.8270682693",19.1361331622,72.8270682693
PizzaExpress,"https://www.google.com/maps/dir/?api=1&destination=19.1162657517,72.9093037918",19.1162657517,72.9093037918
Whatta Waffle!,"https://www.google.com/maps/dir/?api=1&destination=19.1314470000,72.8250310000",19.1314470000,72.8250310000
Badshah,"https://www.google.com/maps/dir/?api=1&destination=18.9474010463,72.8334495798",18.9474010463,72.8334495798
The DanSing Bottle,"https://www.google.com/maps/dir/?api=1&destination=19.2392355123,72.9699964821",19.2392355123,72.9699964821
MOJO Pizza - 2X Toppings,"https://www.google.com/maps/dir/?api=1&destination=19.2104701955,72.8264627606",19.2104701955,72.8264627606
Ekadashi Upahargruha,"https://www.google.com/maps/dir/?api=1&destination=19.0240540000,72.8392810000",19.0240540000,72.8392810000
SpiceKlub,"https://www.google.com/maps/dir/?api=1&destination=18.9943590412,72.8255501390",18.9943590412,72.8255501390
Murlidhar Sweets And Farsan,"https://www.google.com/maps/dir/?api=1&destination=19.2376720581,72.8560411558",19.2376720581,72.8560411558
Gold Coin Family Deluxe Restaurant,"https://www.google.com/maps/dir/?api=1&destination=19.3808818848,72.8282605112",19.3808818848,72.8282605112
Sudama Snacks & Juices,"https://www.google.com/maps/dir/?api=1&destination=19.1624117811,72.8466748819",19.1624117811,72.8466748819
The Cake House,"https://www.google.com/maps/dir/?api=1&destination=18.9767755190,72.8301461041",18.9767755190,72.8301461041
Rare Earth - The Vegan Cafe,"https://www.google.com/maps/dir/?api=1&destination=19.0711804095,72.8387187794",19.0711804095,72.8387187794
Terttulia,"https://www.google.com/maps/dir/?api=1&destination=19.0256910357,72.8354833648",19.0256910357,72.8354833648
Curry Culture,"https://www.google.com/maps/dir/?api=1&destination=19.1767791606,72.8366568312",19.1767791606,72.8366568312
Thotrin Cafe,"https://www.google.com/maps/dir/?api=1&destination=19.0766568515,72.8662677482",19.0766568515,72.8662677482
Jeevan,"https://www.google.com/maps/dir/?api=1&destination=19.0990816630,72.8444191441",19.0990816630,72.8444191441
Bhau Vada Pav,"https://www.google.com/maps/dir/?api=1&destination=19.1735797972,72.9562038928",19.1735797972,72.9562038928
Mocambo Cafe,"https://www.google.com/maps/dir/?api=1&destination=18.9343178485,72.8336383402",18.9343178485,72.8336383402
Chimichurri,"https://www.google.com/maps/dir/?api=1&destination=19.1077260000,72.8832760000",19.1077260000,72.8832760000
Home Deli,"https://www.google.com/maps/dir/?api=1&destination=19.0138952368,72.8275688365",19.0138952368,72.8275688365
Farmhouse Sea N Sand,"https://www.google.com/maps/dir/?api=1&destination=19.3295109049,72.8047786652",19.3295109049,72.8047786652
Courtyard Restaurant & Bar,"https://www.google.com/maps/dir/?api=1&destination=19.1315848926,72.8373119608",19.1315848926,72.8373119608
Vanilla Beans,"https://www.google.com/maps/dir/?api=1&destination=19.0592506264,72.8374041617",19.0592506264,72.8374041617
Jamjar Diner,"https://www.google.com/maps/dir/?api=1&destination=19.1328718765,72.8122852743",19.1328718765,72.8122852743
China Valley,"https://www.google.com/maps/dir/?api=1&destination=19.0125404445,72.8252316266",19.0125404445,72.8252316266
The Orange Mint,"https://www.google.com/maps/dir/?api=1&destination=19.2211746360,72.9769846424",19.2211746360,72.9769846424
Northern Tadka,"https://www.google.com/maps/dir/?api=1&destination=19.1321401689,72.8346927837",19.1321401689,72.8346927837
The Honky Tonk,"https://www.google.com/maps/dir/?api=1&destination=19.1956836815,72.8359202296",19.1956836815,72.8359202296
The Hakims Kitchen,"https://www.google.com/maps/dir/?api=1&destination=19.2908650000,72.8633820000",19.2908650000,72.8633820000
Cakers & Cakers,"https://www.google.com/maps/dir/?api=1&destination=19.1422684872,72.8291332349",19.1422684872,72.8291332349
Heritage,"https://www.google.com/maps/dir/?api=1&destination=19.2420648232,73.1443984061",19.2420648232,73.1443984061
Parsi Dairy Farm,"https://www.google.com/maps/dir/?api=1&destination=18.9453626516,72.8269056603",18.9453626516,72.8269056603
Rule 34,"https://www.google.com/maps/dir/?api=1&destination=19.2100782359,72.8230922297",19.2100782359,72.8230922297
BusaGo,"https://www.google.com/maps/dir/?api=1&destination=19.1486563313,72.8315475583",19.1486563313,72.8315475583
Sugar Rush,"https://www.google.com/maps/dir/?api=1&destination=19.0748475512,72.8270240128",19.0748475512,72.8270240128
Oh! Calcutta - Delivery And Takeaway,"https://www.google.com/maps/dir/?api=1&destination=19.1112150000,72.8880080000",19.1112150000,72.8880080000
Stone Oven,"https://www.google.com/maps/dir/?api=1&destination=19.1638274201,72.9390092567",19.1638274201,72.9390092567
Blue Park,"https://www.google.com/maps/dir/?api=1&destination=19.1305893183,72.8191550821",19.1305893183,72.8191550821
Pop Tate's,"https://www.google.com/maps/dir/?api=1&destination=19.2555490600,72.9849617800",19.2555490600,72.9849617800
Munch,"https://www.google.com/maps/dir/?api=1&destination=19.0352857968,72.8424926475",19.0352857968,72.8424926475
Magdalena,"https://www.google.com/maps/dir/?api=1&destination=18.9702421757,72.8309413791",18.9702421757,72.8309413791
PJ's,"https://www.google.com/maps/dir/?api=1&destination=19.0654084499,72.8306972981",19.0654084499,72.8306972981
Tipsy Gypsy,"https://www.google.com/maps/dir/?api=1&destination=19.1350378386,72.8329131380",19.1350378386,72.8329131380
Ab's Lunch Home,"https://www.google.com/maps/dir/?api=1&destination=19.0317423416,72.8421744704",19.0317423416,72.8421744704
TASCA Oriental Cuisine,"https://www.google.com/maps/dir/?api=1&destination=19.2066778367,72.9745146632",19.2066778367,72.9745146632
Oye Kake,"https://www.google.com/maps/dir/?api=1&destination=18.9330502562,72.8335377574",18.9330502562,72.8335377574
Kaitlyn's,"https://www.google.com/maps/dir/?api=1&destination=19.0547060000,72.8282570000",19.0547060000,72.8282570000
Golden Star Thali,"https://www.google.com/maps/dir/?api=1&destination=18.9529843066,72.8174042702",18.9529843066,72.8174042702
The Boston Cupcakery,"https://www.google.com/maps/dir/?api=1&destination=19.1467065575,72.8282095492",19.1467065575,72.8282095492
International Baking Company,"https://www.google.com/maps/dir/?api=1&destination=19.2728548774,72.8823348507",19.2728548774,72.8823348507
210 Degrees,"https://www.google.com/maps/dir/?api=1&destination=18.9305835500,72.8263035000",18.9305835500,72.8263035000
Mantra Dining Bar,"https://www.google.com/maps/dir/?api=1&destination=19.1233844506,72.9131333157",19.1233844506,72.9131333157
R Steam Hot,"https://www.google.com/maps/dir/?api=1&destination=19.1751980121,72.9530750960",19.1751980121,72.9530750960
eat.fit,"https://www.google.com/maps/dir/?api=1&destination=19.0485070000,72.9104340000",19.0485070000,72.9104340000
Everyday Anday,"https://www.google.com/maps/dir/?api=1&destination=19.1908058446,72.9711605608",19.1908058446,72.9711605608
Gargi's Milkshakes,"https://www.google.com/maps/dir/?api=1&destination=19.1909461708,72.9705961094",19.1909461708,72.9705961094
Loco Loca,"https://www.google.com/maps/dir/?api=1&destination=19.1366770203,72.8296264261",19.1366770203,72.8296264261
Monis Bar and Restaurant,"https://www.google.com/maps/dir/?api=1&destination=19.1878939556,72.9671979323",19.1878939556,72.9671979323
Aromas Cafe,"https://www.google.com/maps/dir/?api=1&destination=19.2557482117,72.9839040712",19.2557482117,72.9839040712
Hot & Spice,"https://www.google.com/maps/dir/?api=1&destination=19.4065947703,72.8275842592",19.4065947703,72.8275842592
Delight Punjabi Kulfi and Cold Drink House,"https://www.google.com/maps/dir/?api=1&destination=19.0339010692,72.8653199226",19.0339010692,72.8653199226
BouganVilla,"https://www.google.com/maps/dir/?api=1&destination=19.0856678870,72.9101563990",19.0856678870,72.9101563990
Dessertino,"https://www.google.com/maps/dir/?api=1&destination=19.2115878133,72.8414519504",19.2115878133,72.8414519504
Spesso Gourmet Kitchen,"https://www.google.com/maps/dir/?api=1&destination=18.9243877478,72.8215067089",18.9243877478,72.8215067089
The Yellow Chilli,"https://www.google.com/maps/dir/?api=1&destination=19.2084242703,72.9717855155",19.2084242703,72.9717855155
The Bigg Small Cafe + Bar,"https://www.google.com/maps/dir/?api=1&destination=19.1070301833,72.8844893351",19.1070301833,72.8844893351
Glasshouse - Hyatt Regency Mumbai,"https://www.google.com/maps/dir/?api=1&destination=19.1036840000,72.8713680000",19.1036840000,72.8713680000
The Butler And The Bayleaf,"https://www.google.com/maps/dir/?api=1&destination=19.1070827730,72.8261097148",19.1070827730,72.8261097148
Amul Ice Cream Parlour,"https://www.google.com/maps/dir/?api=1&destination=19.2094177914,72.9621312395",19.2094177914,72.9621312395
Masala Kraft - The Taj Mahal Palace,"https://www.google.com/maps/dir/?api=1&destination=18.9221397481,72.8337566927",18.9221397481,72.8337566927
Caek Cafe,"https://www.google.com/maps/dir/?api=1&destination=19.2736163419,72.8696148098",19.2736163419,72.8696148098
Shanghai Kitchen,"https://www.google.com/maps/dir/?api=1&destination=19.1262840000,72.9186750000",19.1262840000,72.9186750000
Barrel & Co.,"https://www.google.com/maps/dir/?api=1&destination=19.1349155724,72.8324873373",19.1349155724,72.8324873373
Myfroyoland,"https://www.google.com/maps/dir/?api=1&destination=19.0551134876,72.8292254359",19.0551134876,72.8292254359
The Good Food Co.,"https://www.google.com/maps/dir/?api=1&destination=19.0984717823,72.8457625955",19.0984717823,72.8457625955
Paresh Missal,"https://www.google.com/maps/dir/?api=1&destination=19.0941531288,72.8499515355",19.0941531288,72.8499515355
Contigo,"https://www.google.com/maps/dir/?api=1&destination=19.0900209803,73.0051220208",19.0900209803,73.0051220208
Cafe Andora,"https://www.google.com/maps/dir/?api=1&destination=19.0572934605,72.8276734427",19.0572934605,72.8276734427
Lucibello's,"https://www.google.com/maps/dir/?api=1&destination=19.2515757997,72.8607879952",19.2515757997,72.8607879952
Sandwizzaa,"https://www.google.com/maps/dir/?api=1&destination=19.0608020000,72.8294980000",19.0608020000,72.8294980000
A1 Samosa,"https://www.google.com/maps/dir/?api=1&destination=19.1559167877,72.8356798366",19.1559167877,72.8356798366
Trupti,"https://www.google.com/maps/dir/?api=1&destination=18.9558416636,72.8244460747",18.9558416636,72.8244460747
Shree Datta Boarding,"https://www.google.com/maps/dir/?api=1&destination=18.9939846395,72.8366973996",18.9939846395,72.8366973996
Kebab Corner,"https://www.google.com/maps/dir/?api=1&destination=19.1248317847,72.8645685688",19.1248317847,72.8645685688
Cakes N More,"https://www.google.com/maps/dir/?api=1&destination=18.9496737574,72.7974452823",18.9496737574,72.7974452823
South Bombay Bar,"https://www.google.com/maps/dir/?api=1&destination=18.9974144572,72.8307680413",18.9974144572,72.8307680413
Utsav Restaurant,"https://www.google.com/maps/dir/?api=1&destination=19.1040268414,72.8301933780",19.1040268414,72.8301933780
Durga Restaurant And Bar,"https://www.google.com/maps/dir/?api=1&destination=19.0265639435,72.8507209942",19.0265639435,72.8507209942
The Dough Code,"https://www.google.com/maps/dir/?api=1&destination=19.0582170000,72.8339030000",19.0582170000,72.8339030000
O22 - Trident,"https://www.google.com/maps/dir/?api=1&destination=19.0671760249,72.8674921766",19.0671760249,72.8674921766
Olympia Coffee House,"https://www.google.com/maps/dir/?api=1&destination=18.9226494200,72.8316498175",18.9226494200,72.8316498175
Fresh Cakes & Breads,"https://www.google.com/maps/dir/?api=1&destination=19.0993129418,73.0053728074",19.0993129418,73.0053728074
Episode One,"https://www.google.com/maps/dir/?api=1&destination=19.1112150000,72.8880080000",19.1112150000,72.8880080000
Khana Taiyyar Hai,"https://www.google.com/maps/dir/?api=1&destination=19.1191662340,72.8684524074",19.1191662340,72.8684524074
The Pancake Story,"https://www.google.com/maps/dir/?api=1&destination=19.1768950000,72.8365850000",19.1768950000,72.8365850000
Hoppumm,"https://www.google.com/maps/dir/?api=1&destination=19.0602680000,72.8311410000",19.0602680000,72.8311410000
El Postre: The Little Baking Station,"https://www.google.com/maps/dir/?api=1&destination=19.0528384135,72.9022073373",19.0528384135,72.9022073373
O Cakes,"https://www.google.com/maps/dir/?api=1&destination=19.1042425896,72.8871041536",19.1042425896,72.8871041536
EatRight,"https://www.google.com/maps/dir/?api=1&destination=19.3853435459,72.8250572830",19.3853435459,72.8250572830
Suzette Creperie & Cafe,"https://www.google.com/maps/dir/?api=1&destination=19.0619302838,72.8295194730",19.0619302838,72.8295194730
House Of Cookies,"https://www.google.com/maps/dir/?api=1&destination=19.1070457068,72.8317068145",19.1070457068,72.8317068145
The Homemade Cafe,"https://www.google.com/maps/dir/?api=1&destination=19.1495346089,72.8315204009",19.1495346089,72.8315204009
Brain Freeze Ice Cream & Desserts,"https://www.google.com/maps/dir/?api=1&destination=19.2120149123,72.8417637572",19.2120149123,72.8417637572
Copa,"https://www.google.com/maps/dir/?api=1&destination=19.1097990389,72.8272030503",19.1097990389,72.8272030503
Khichdi Wala,"https://www.google.com/maps/dir/?api=1&destination=19.0605640000,72.9034340000",19.0605640000,72.9034340000
Cafe Mysore,"https://www.google.com/maps/dir/?api=1&destination=19.0274951669,72.8555952385",19.0274951669,72.8555952385
Liberty La Classique,"https://www.google.com/maps/dir/?api=1&destination=19.1980457628,72.8384358063",19.1980457628,72.8384358063
Tuskers - Sofitel,"https://www.google.com/maps/dir/?api=1&destination=19.0673347825,72.8691501170",19.0673347825,72.8691501170
Global Quarters,"https://www.google.com/maps/dir/?api=1&destination=19.1117197864,72.9179542512",19.1117197864,72.9179542512
Bowl Baby Bowl,"https://www.google.com/maps/dir/?api=1&destination=19.0653840497,72.8340329602",19.0653840497,72.8340329602
Olive Bar & Kitchen,"https://www.google.com/maps/dir/?api=1&destination=19.0693447485,72.8228997812",19.0693447485,72.8228997812
Toit,"https://www.google.com/maps/dir/?api=1&destination=19.0006013758,72.8297293559",19.0006013758,72.8297293559
Cakes & Crackers,"https://www.google.com/maps/dir/?api=1&destination=19.2969317089,72.8645149246",19.2969317089,72.8645149246
The Bakewell Bakery & Patisserie,"https://www.google.com/maps/dir/?api=1&destination=19.0992502114,73.0045004189",19.0992502114,73.0045004189
La Patisserie - The Taj Mahal Palace,"https://www.google.com/maps/dir/?api=1&destination=18.9221397481,72.8337566927",18.9221397481,72.8337566927
Behrouz Biryani,"https://www.google.com/maps/dir/?api=1&destination=19.4645495140,72.8042430058",19.4645495140,72.8042430058
Jeden - The Cake Expert,"https://www.google.com/maps/dir/?api=1&destination=19.0836930000,72.9090950000",19.0836930000,72.9090950000
Vilayati,"https://www.google.com/maps/dir/?api=1&destination=19.0818812142,73.0050452426",19.0818812142,73.0050452426
Garden Court Restaurant,"https://www.google.com/maps/dir/?api=1&destination=19.1935090168,72.8402523324",19.1935090168,72.8402523324
ButterCream Buddha,"https://www.google.com/maps/dir/?api=1&destination=19.0742060000,72.8246740000",19.0742060000,72.8246740000
Hungry Headz,"https://www.google.com/maps/dir/?api=1&destination=19.1300090000,72.8693840000",19.1300090000,72.8693840000
Birista - Biryanis & Kebabs,"https://www.google.com/maps/dir/?api=1&destination=19.0104800234,73.0325419083",19.0104800234,73.0325419083
Home Made Paratha,"https://www.google.com/maps/dir/?api=1&destination=19.4293413002,72.8142231703",19.4293413002,72.8142231703
Banglore Iyanger's Bakery,"https://www.google.com/maps/dir/?api=1&destination=19.1929324156,72.8335230052",19.1929324156,72.8335230052
Aram,"https://www.google.com/maps/dir/?api=1&destination=18.9395764938,72.8345791250",18.9395764938,72.8345791250
Dutch Patisserie,"https://www.google.com/maps/dir/?api=1&destination=19.0728774000,72.8226104000",19.0728774000,72.8226104000
La Braco,"https://www.google.com/maps/dir/?api=1&destination=19.0550817972,72.8309705481",19.0550817972,72.8309705481
Dakshin Culture Curry,"https://www.google.com/maps/dir/?api=1&destination=19.0320577059,72.8397990391",19.0320577059,72.8397990391
Soul Fry,"https://www.google.com/maps/dir/?api=1&destination=19.0628828573,72.8292478994",19.0628828573,72.8292478994
Keventers - Milkshakes & Ice Creams,"https://www.google.com/maps/dir/?api=1&destination=19.2274745783,72.9701242223",19.2274745783,72.9701242223
Hotel Amantran,"https://www.google.com/maps/dir/?api=1&destination=19.1908593575,72.9767248034",19.1908593575,72.9767248034
Easyhuman Cafe,"https://www.google.com/maps/dir/?api=1&destination=18.9151262896,72.8242107108",18.9151262896,72.8242107108
Plate & Pint,"https://www.google.com/maps/dir/?api=1&destination=18.9647067376,72.8049574792",18.9647067376,72.8049574792
Abhinandan,"https://www.google.com/maps/dir/?api=1&destination=19.0963931018,72.9152244329",19.0963931018,72.9152244329
Happie Calories,"https://www.google.com/maps/dir/?api=1&destination=19.1200633585,72.8273203969",19.1200633585,72.8273203969
Nashta Vashta,"https://www.google.com/maps/dir/?api=1&destination=19.0145000399,73.0229127780",19.0145000399,73.0229127780
The Neeru's Kitchen,"https://www.google.com/maps/dir/?api=1&destination=19.2806400000,72.8610200000",19.2806400000,72.8610200000
Kailash Mandir Lassi and Sweets,"https://www.google.com/maps/dir/?api=1&destination=19.2183380003,73.0879147723",19.2183380003,73.0879147723
Leaping Windows,"https://www.google.com/maps/dir/?api=1&destination=19.1388049231,72.8134671226",19.1388049231,72.8134671226
70 Beans,"https://www.google.com/maps/dir/?api=1&destination=19.0858183889,73.0072842166",19.0858183889,73.0072842166
Petway Of India,"https://www.google.com/maps/dir/?api=1&destination=19.0885400000,73.0139620000",19.0885400000,73.0139620000
XO Belgian Waffle,"https://www.google.com/maps/dir/?api=1&destination=19.2339002705,72.8536821529",19.2339002705,72.8536821529
Janata Lunch Home,"https://www.google.com/maps/dir/?api=1&destination=19.0628961667,72.8292297944",19.0628961667,72.8292297944
Malwani Aswad,"https://www.google.com/maps/dir/?api=1&destination=19.1076989581,72.8481229395",19.1076989581,72.8481229395
Birdy's,"https://www.google.com/maps/dir/?api=1&destination=19.2467224122,72.8506878018",19.2467224122,72.8506878018
Kebab Gunj,"https://www.google.com/maps/dir/?api=1&destination=18.9180489962,72.8315861151",18.9180489962,72.8315861151
Madras Idli,"https://www.google.com/maps/dir/?api=1&destination=19.1805342086,72.8467399254",19.1805342086,72.8467399254
Koyla,"https://www.google.com/maps/dir/?api=1&destination=18.9184546505,72.8310433030",18.9184546505,72.8310433030
Sigree Global Grill,"https://www.google.com/maps/dir/?api=1&destination=19.1867595000,72.8350638000",19.1867595000,72.8350638000
Flute 24 Hrs,"https://www.google.com/maps/dir/?api=1&destination=18.9623543268,72.8140850365",18.9623543268,72.8140850365
Asian Touch,"https://www.google.com/maps/dir/?api=1&destination=19.0748976161,72.8270370886",19.0748976161,72.8270370886
Bake It Easy,"https://www.google.com/maps/dir/?api=1&destination=19.2583721367,72.8617180511",19.2583721367,72.8617180511
Indulge,"https://www.google.com/maps/dir/?api=1&destination=19.1718620000,72.9423460000",19.1718620000,72.9423460000
Iscicle,"https://www.google.com/maps/dir/?api=1&destination=19.1514438092,72.8316461295",19.1514438092,72.8316461295
Anando,"https://www.google.com/maps/dir/?api=1&destination=18.9540526106,72.8145081550",18.9540526106,72.8145081550
Khichdi Express,"https://www.google.com/maps/dir/?api=1&destination=19.1772460000,72.8358300000",19.1772460000,72.8358300000
Fort Kochi,"https://www.google.com/maps/dir/?api=1&destination=19.1687719268,72.8672906756",19.1687719268,72.8672906756
The Bayview Restaurant - Marine Plaza,"https://www.google.com/maps/dir/?api=1&destination=18.9311731109,72.8230456263",18.9311731109,72.8230456263
Modern Juice Centre,"https://www.google.com/maps/dir/?api=1&destination=18.9185802477,72.8310872242",18.9185802477,72.8310872242
Howra Burger,"https://www.google.com/maps/dir/?api=1&destination=19.1751881952,72.8371345997",19.1751881952,72.8371345997
Hammer & Song,"https://www.google.com/maps/dir/?api=1&destination=18.9137548359,72.8182404488",18.9137548359,72.8182404488
Mummy Ki Rasoi,"https://www.google.com/maps/dir/?api=1&destination=19.2041590000,72.9718270000",19.2041590000,72.9718270000
Poornima,"https://www.google.com/maps/dir/?api=1&destination=18.9311169770,72.8331578895",18.9311169770,72.8331578895
New Sernyaa,"https://www.google.com/maps/dir/?api=1&destination=19.1793419632,72.8371205181",19.1793419632,72.8371205181
Mezzo Mezzo - JW Marriott Mumbai Juhu,"https://www.google.com/maps/dir/?api=1&destination=19.1019726254,72.8271631524",19.1019726254,72.8271631524
Punjab Grill,"https://www.google.com/maps/dir/?api=1&destination=18.9942671052,72.8239237145",18.9942671052,72.8239237145
Temptations,"https://www.google.com/maps/dir/?api=1&destination=19.1068217253,72.8401983529",19.1068217253,72.8401983529
Redburry Cakes,"https://www.google.com/maps/dir/?api=1&destination=19.2588541874,72.9789010808",19.2588541874,72.9789010808
The Clearing House,"https://www.google.com/maps/dir/?api=1&destination=18.9354950485,72.8374842927",18.9354950485,72.8374842927
Crosta The Cake Boutique,"https://www.google.com/maps/dir/?api=1&destination=19.0689968167,72.8397363424",19.0689968167,72.8397363424
Only Roti's,"https://www.google.com/maps/dir/?api=1&destination=19.1431100574,72.8321765363",19.1431100574,72.8321765363
Toast & Tonic,"https://www.google.com/maps/dir/?api=1&destination=19.0602000464,72.8642547503",19.0602000464,72.8642547503
Shree Pet Pooja,"https://www.google.com/maps/dir/?api=1&destination=19.1616643695,72.8472207114",19.1616643695,72.8472207114
MoMo Cafe - Courtyard By Marriott,"https://www.google.com/maps/dir/?api=1&destination=19.1123853742,72.8668347001",19.1123853742,72.8668347001
Annapurna Tiffin Sevices,"https://www.google.com/maps/dir/?api=1&destination=19.4581682456,72.8143007558",19.4581682456,72.8143007558
Shri Krishna Sweets,"https://www.google.com/maps/dir/?api=1&destination=19.1737042515,72.9551296681",19.1737042515,72.9551296681
Chef Corner,"https://www.google.com/maps/dir/?api=1&destination=19.1450288340,72.8304056078",19.1450288340,72.8304056078
Mister Vegan,"https://www.google.com/maps/dir/?api=1&destination=19.0852826015,72.9128543660",19.0852826015,72.9128543660
"SMP Express By Sun, Moon & Potatoes","https://www.google.com/maps/dir/?api=1&destination=19.1241085944,72.8698035702",19.1241085944,72.8698035702
Cake Route,"https://www.google.com/maps/dir/?api=1&destination=19.0457578814,73.0726996064",19.0457578814,73.0726996064
Quesso Xpress,"https://www.google.com/maps/dir/?api=1&destination=19.1487453312,72.8316085786",19.1487453312,72.8316085786
Cocoon- Dragonfly Hotel,"https://www.google.com/maps/dir/?api=1&destination=19.1106739044,72.8629989624",19.1106739044,72.8629989624
Bayview Cafe,"https://www.google.com/maps/dir/?api=1&destination=18.9188907516,72.8321537375",18.9188907516,72.8321537375
Patisserie At The Club Mumbai,"https://www.google.com/maps/dir/?api=1&destination=19.1214090000,72.8296753000",19.1214090000,72.8296753000
Bomberry,"https://www.google.com/maps/dir/?api=1&destination=18.9655098916,72.8127747774",18.9655098916,72.8127747774
The Earth Plate - Sahara Star,"https://www.google.com/maps/dir/?api=1&destination=19.0949214398,72.8541042656",19.0949214398,72.8541042656
Sandoitchi,"https://www.google.com/maps/dir/?api=1&destination=19.1178151529,72.9048312083",19.1178151529,72.9048312083
Earthlings' Cafe,"https://www.google.com/maps/dir/?api=1&destination=19.1374293000,72.8249929000",19.1374293000,72.8249929000
Old Lucky Caterers,"https://www.google.com/maps/dir/?api=1&destination=19.3702065476,72.8145510703",19.3702065476,72.8145510703
The Hungry Pirates,"https://www.google.com/maps/dir/?api=1&destination=19.1788413126,72.9489025846",19.1788413126,72.9489025846
Salt N Pepper,"https://www.google.com/maps/dir/?api=1&destination=19.1037350581,72.8269100189",19.1037350581,72.8269100189
Viking Pizza,"https://www.google.com/maps/dir/?api=1&destination=19.0168441065,72.8252443671",19.0168441065,72.8252443671
Cookstory,"https://www.google.com/maps/dir/?api=1&destination=19.1450440000,72.8317530000",19.1450440000,72.8317530000
Cake Pop Rush,"https://www.google.com/maps/dir/?api=1&destination=18.9662074562,72.8127281740",18.9662074562,72.8127281740
San-Qi - Four Seasons,"https://www.google.com/maps/dir/?api=1&destination=18.9987915635,72.8176590800",18.9987915635,72.8176590800
Cafe Brosten,"https://www.google.com/maps/dir/?api=1&destination=19.3701799785,72.8144441172",19.3701799785,72.8144441172
Shawarma Street,"https://www.google.com/maps/dir/?api=1&destination=19.2132230000,72.8674190000",19.2132230000,72.8674190000
Ashok Sweets,"https://www.google.com/maps/dir/?api=1&destination=19.2180616700,73.0855578000",19.2180616700,73.0855578000
Amor Churros,"https://www.google.com/maps/dir/?api=1&destination=19.1930172752,72.9674986750",19.1930172752,72.9674986750
Rudy's Arabian Shawarma,"https://www.google.com/maps/dir/?api=1&destination=19.0530644000,72.8291932000",19.0530644000,72.8291932000
Namaste,"https://www.google.com/maps/dir/?api=1&destination=19.1518745481,72.9360786080",19.1518745481,72.9360786080
Rainbow,"https://www.google.com/maps/dir/?api=1&destination=19.2029648625,72.8218024224",19.2029648625,72.8218024224
Portico,"https://www.google.com/maps/dir/?api=1&destination=19.2557722672,72.9812399670",19.2557722672,72.9812399670
Beyond Waffles,"https://www.google.com/maps/dir/?api=1&destination=18.9759166174,72.8123328835",18.9759166174,72.8123328835
Kapoor Punjabi Kulfi,"https://www.google.com/maps/dir/?api=1&destination=18.9540782955,72.8145014495",18.9540782955,72.8145014495
Jumboking,"https://www.google.com/maps/dir/?api=1&destination=19.2113240815,72.8681908920",19.2113240815,72.8681908920
Francesco's Pizzeria,"https://www.google.com/maps/dir/?api=1&destination=18.9156860000,72.8246230000",18.9156860000,72.8246230000
Yummilicious,"https://www.google.com/maps/dir/?api=1&destination=19.1113830315,72.8958095983",19.1113830315,72.8958095983
Sleight of Hand,"https://www.google.com/maps/dir/?api=1&destination=18.9714276829,72.8151022643",18.9714276829,72.8151022643
Tinge,"https://www.google.com/maps/dir/?api=1&destination=19.0762040530,72.9034944624",19.0762040530,72.9034944624
The Hunger Express,"https://www.google.com/maps/dir/?api=1&destination=19.3442149096,72.8068879992",19.3442149096,72.8068879992
Swag Paratha,"https://www.google.com/maps/dir/?api=1&destination=19.1705550000,72.8390780000",19.1705550000,72.8390780000
Cream Lounge,"https://www.google.com/maps/dir/?api=1&destination=19.2350598314,72.8410982341",19.2350598314,72.8410982341
Gateaux Et Gratins,"https://www.google.com/maps/dir/?api=1&destination=19.0479183282,73.0757469311",19.0479183282,73.0757469311
Talli Turmeric,"https://www.google.com/maps/dir/?api=1&destination=18.9911325000,72.8144016000",18.9911325000,72.8144016000
Satkar Sweets And Namkeen,"https://www.google.com/maps/dir/?api=1&destination=19.1720610042,72.9571141675",19.1720610042,72.9571141675
Break Free,"https://www.google.com/maps/dir/?api=1&destination=19.1920328376,72.8439594805",19.1920328376,72.8439594805
Cake Pop Company,"https://www.google.com/maps/dir/?api=1&destination=19.0522562506,72.8239009157",19.0522562506,72.8239009157
The Parfait Co.,"https://www.google.com/maps/dir/?api=1&destination=18.9755244191,72.8237111494",18.9755244191,72.8237111494
Amadeus Lounge,"https://www.google.com/maps/dir/?api=1&destination=18.9247575485,72.8201756626",18.9247575485,72.8201756626
The Bowl Story,"https://www.google.com/maps/dir/?api=1&destination=19.1124344775,72.8669319302",19.1124344775,72.8669319302
The Society Restaurant - The Ambassador Hotel,"https://www.google.com/maps/dir/?api=1&destination=18.9334558741,72.8248933330",18.9334558741,72.8248933330
Mad About Bowls,"https://www.google.com/maps/dir/?api=1&destination=19.1227575536,72.9131339863",19.1227575536,72.9131339863
Brew House Cafe,"https://www.google.com/maps/dir/?api=1&destination=19.0098393857,73.0330599099",19.0098393857,73.0330599099
Fresh Juicery,"https://www.google.com/maps/dir/?api=1&destination=19.1287318261,72.8163602203",19.1287318261,72.8163602203
B - Kitchen & Bar,"https://www.google.com/maps/dir/?api=1&destination=19.0933135272,72.8282001615",19.0933135272,72.8282001615
Mazedaar Pizza,"https://www.google.com/maps/dir/?api=1&destination=19.0670657501,72.9207139090",19.0670657501,72.9207139090
Maharaj Ji,"https://www.google.com/maps/dir/?api=1&destination=19.0802300825,72.8473803028",19.0802300825,72.8473803028
Baesic,"https://www.google.com/maps/dir/?api=1&destination=19.0396154922,72.8446317092",19.0396154922,72.8446317092
Chef Shan's Cakes & More,"https://www.google.com/maps/dir/?api=1&destination=19.2184719184,72.9611233994",19.2184719184,72.9611233994
Honey Baker's,"https://www.google.com/maps/dir/?api=1&destination=19.0205926425,73.0173532292",19.0205926425,73.0173532292
Chindian Xpress,"https://www.google.com/maps/dir/?api=1&destination=19.0718907000,73.0758046000",19.0718907000,73.0758046000
Batter Up Cookies & More,"https://www.google.com/maps/dir/?api=1&destination=19.0261100574,72.8564066067",19.0261100574,72.8564066067
Hungry Cat Kitchen,"https://www.google.com/maps/dir/?api=1&destination=19.0394367412,72.8448945656",19.0394367412,72.8448945656
Tier Nom Patisserie,"https://www.google.com/maps/dir/?api=1&destination=18.9209446000,72.8303152000",18.9209446000,72.8303152000
Parsilicious By Dilshad Karande,"https://www.google.com/maps/dir/?api=1&destination=18.9641410713,72.8159649298",18.9641410713,72.8159649298
Ambrosia's Kaka Kaki,"https://www.google.com/maps/dir/?api=1&destination=19.0812674679,72.8374759108",19.0812674679,72.8374759108
Oye Lucky Paratha,"https://www.google.com/maps/dir/?api=1&destination=19.1790849800,72.8403379000",19.1790849800,72.8403379000
